,name,categories,lat,lng
0,The Cajun Crawfish,Cajun / Creole Restaurant,47.539289971206344,-122.28267717852208
1,Hoang Lan,Vietnamese Restaurant,47.538348836229716,-122.28202097084484
2,The UPS Store,Shipping Store,47.536820795367134,-122.28451877832413
3,Tammy's Bakery,Bakery,47.537504697937976,-122.28284107657363
4,Taco Street,Taco Place,47.5381,-122.28128999999998
5,Huong Duong Sunflower,Vietnamese Restaurant,47.53781871254015,-122.2813544666586
6,Foo Lam,Chinese Restaurant,47.53848168684539,-122.28294798188341
7,Ambrosia Tea & Espresso,Café,47.53900184447389,-122.28244478248476
8,Chase Bank,Bank,47.538683,-122.281383
9,"John C. Little, Sr. Park",Playground,47.53929138183594,-122.28653717041016
10,Van Asselt Playground,Playground,47.5397145758331,-122.29420350033924
11,Safeway,Grocery Store,47.53743460000001,-122.2830543
12,Ba Mien Seafood Market,Fish Market,47.53911603256009,-122.28302567745213
13,Venus Seafood Chinese Restaurant,Chinese Restaurant,47.53842190224066,-122.2830980910532
14,Thai Savon,Asian Restaurant,47.541943,-122.283927
15,Amazing Thai Lao Cuisine,Thai Restaurant,47.541653000000004,-122.28363600000002
16,che dessert lounge,Asian Restaurant,47.53853970239218,-122.28247172439795
17,Pho My Chau,Vietnamese Restaurant,47.53863860504554,-122.28236147984032
18,Van Asselt Soccer Field,Soccer Field,47.53808486120779,-122.29754580239828
19,El Asadero,Mexican Restaurant,47.53724733537418,-122.28018074129658
20,Rainier Health and Fitness,Gym,47.53645369627841,-122.27382618726848
21,Othello Playground,Park,47.53641792824911,-122.27381605285423
22,Starbucks,Coffee Shop,47.536498597176504,-122.27377714395772
23,Jacksons Catfish Corner,Seafood Restaurant,47.537875574052045,-122.27035712120993
24,Domino's Pizza,Pizza Place,47.53671999392601,-122.28050038229406
25,Bang Bang Kitchen,Tex-Mex Restaurant,47.536922,-122.27968600000001
26,Huarachitos Cocina Mexicana,Mexican Restaurant,47.53645457897819,-122.273828732183
27,Shell,Gas Station,47.53640478223896,-122.27377495438057
28,Pho Dong,Vietnamese Restaurant,47.5377197265625,-122.28099822998048
29,Husser Window Cleaning,Home Service,47.53977413175557,-122.27225303649901
30,Signature Cafe,Breakfast Spot,47.53651544266997,-122.27388702858286
31,Los Potrillos - Taco Truck,Food Truck,47.54103076457959,-122.27156394282879
32,Zest Fast Food,Fast Food Restaurant,47.538777,-122.271008
33,Thai Palms,Thai Restaurant,47.541943,-122.283927
34,Martha Washington Park,Park,47.54345448131699,-122.26111558729792
35,Othello Meets Seward,Intersection,47.53832198211748,-122.26616595712945
36,Starbucks,Coffee Shop,47.541036,-122.22585500000001
37,Toshi's Teriyaki,Asian Restaurant,47.54166726475045,-122.2248580659744
38,Pioneer Park,Park,47.54212074763928,-122.22165584564208
39,Yuzen Japanese Restaurant,Japanese Restaurant,47.5410606773903,-122.22462897797287
40,Mercer Island Country Club,Gym / Fitness Center,47.53986627392155,-122.22333191353157
41,QFC,Supermarket,47.5413675,-122.2256821
42,Rite Aid,Pharmacy,47.541016,-122.22510079999999
43,Starbucks,Coffee Shop,47.542461308518725,-122.22179020284406
44,Karate West,Martial Arts School,47.540885,-122.224885
45,Lux Foot Spa,Massage Studio,47.54092025756836,-122.22476959228516
46,Riviera Maya,Mexican Restaurant,47.54092025756836,-122.22476959228516
47,Sahara Pizza,Pizza Place,47.54159675560055,-122.22520655697521
48,"Root Cause, LLC",Tree,47.53703628047205,-122.22510516643524
49,Islander Middle School Field,Track Stadium,47.535999515700205,-122.22851335830921
50,Mercer Island Saddle Club,Gym / Fitness Center,47.54140200000001,-122.222668
51,South Mercer Playfields,Soccer Field,47.53390037536862,-122.2283814428347
52,Clarke Beach Park,Beach,47.53368982364154,-122.21577644348145
53,Virginia Mason Athletic Center - Seahawks Headquarters,Athletics & Sports,47.53571800479104,-122.19732284545898
54,Lake Washington Trail,Trail,47.53915171059746,-122.19553698958616
55,Barone Garden Decor,Furniture / Home Store,47.53762578807039,-122.19483028512349
56,Pont Du Balmer,Scenic Lookout,47.54011932956754,-122.19431582223507
57,SEAHAWKS Training Camp,Football Stadium,47.53412726445733,-122.19885579835831
58,Newcastle Fitness,Gym,47.543645,-122.196501
59,The Crown Royal Poker Room,Nightclub,47.536353030980216,-122.1834100419928
60,Newcastle Espresso,Coffee Shop,47.544932663422244,-122.19112740772215
61,Zen Yoga,Yoga Studio,47.53361737,-122.19002648
62,Lesley's Gourmet,Dessert Shop,47.544494,-122.185921
63,Hazelwood Park,Park,47.53698979760482,-122.17780076325678
64,Appliance Repair Newcastle,Home Service,47.54241044601988,-122.17741012573241
65,Bartell Drugs,Pharmacy,47.5385987733632,-122.16742488456293
66,B&E Meats and Seafood,Market,47.5379140965094,-122.16472981410843
67,Yea's Wok,Chinese Restaurant,47.53828989650783,-122.16681999538059
68,Newcastle Fruit & Produce,Farmers Market,47.537294240738184,-122.16462712360857
69,Tapatio Mexican Restaurant,Mexican Restaurant,47.539832714282376,-122.16473497159737
70,Safeway,Grocery Store,47.5396875,-122.167377
71,QFC,Supermarket,47.5390791,-122.1648307
72,Starbucks,Coffee Shop,47.53819970366054,-122.16652236878872
73,Jersey Mike's Subs,Sandwich Place,47.53918075561523,-122.16463470458984
74,Zoëyogurt Newcastle,Frozen Yogurt Shop,47.539567307459116,-122.16482588810742
75,Starbucks,Coffee Shop,47.539021999999996,-122.164822
76,Papa Murphy's,Pizza Place,47.53848332478301,-122.16756714847946
77,The UPS Store,Shipping Store,47.538450492669924,-122.16756775975227
78,Redbox,Video Store,47.538872999999995,-122.16604199999999
79,Chase Bank,Bank,47.5373286,-122.1665994
80,Wells Fargo Bank,Bank,47.539451799999995,-122.16736509999998
81,Great Clips,Salon / Barbershop,47.53820820042655,-122.16672817152164
82,MOD Pizza,Pizza Place,47.54379441,-122.16392720000002
83,Starbucks,Coffee Shop,47.54411562058259,-122.16384198410515
84,KeyBank,Bank,47.53908243943886,-122.16664373874664
85,SUBWAY,Sandwich Place,47.538185999999996,-122.166575
86,McDonald's,Fast Food Restaurant,47.53726311946981,-122.16610453558133
87,Yang's Kitchen,Chinese Restaurant,47.539402,-122.16465
88,Coal Creek Marketplace,Shopping Mall,47.53918075561523,-122.16462707519531
89,BECU ATM,ATM,47.539898040214226,-122.16532257791478
90,DIY Tea Lab,Bubble Tea Shop,47.538652,-122.16642399999999
91,State Liquor Store #114,Liquor Store,47.53915023803711,-122.16748809814452
92,Blazing Onion Burger Company,Burger Joint,47.54272842407226,-122.1640853881836
93,Newcastle Commons,Shopping Plaza,47.543343,-122.16181
94,Aji Sushi & Grill,Japanese Restaurant,47.5439,-122.1637
95,The Rusty Putter Course at Newcastle,Golf Course,47.542173,-122.15855800000001
96,Coal Creek Family YMCA,Gym,47.540966580534494,-122.15606240810592
97,YMCA Swimming Pool,Pool,47.541113401918466,-122.1561556504626
98,Wooly Toad,Lounge,47.53660583496094,-122.14983367919922
99,The Golf Club at Newcastle,Golf Course,47.53533571557442,-122.14300565292014
100,The Calcutta Grill,American Restaurant,47.53522620961563,-122.14387325465626
101,Cinder Mine Trailhead,Trail,47.53801,-122.134918
102,Newcastle Driving Range,Golf Driving Range,47.534826,-122.14206599999999
103,Georgio's Subs,Sandwich Place,47.54506,-122.139665
104,Red Town Trailhead,Trail,47.53480083105978,-122.12882734974056
105,TakeItOn 2Day: Seattle Bookkeeping and Accounting,Financial or Legal Service,47.540882,-122.122556
106,Red Town Dam,Trail,47.53614583218608,-122.12412430761059
107,Cougar Mountain - Summit / Radio Towers,Scenic Lookout,47.53961736228477,-122.11726310612242
108,Sky Country Trailhead,Trail,47.53682008400996,-122.11678996928549
109,Coal Creek Trail,Trail,47.54327477067211,-122.11532825286007
110,Cougar Mountain City View,Scenic Lookout,47.543584,-122.11410900000001
111,Cougar Mountain Regional Wildland Park - Anti-Aircraft Peak Trailhead,Trail,47.541050582980915,-122.09608906321779
112,Shangrila,Park,47.54046326970521,-122.09954031840138
113,"""Radar Park"" at Cougar Mountain Regional Wildland Park",Park,47.54124026689527,-122.09677661521177
114,"Million Dollar View, Cougar Mountain Park",Scenic Lookout,47.541515304158146,-122.09522646389559
115,Talus Trails,Trail,47.538185289251786,-122.07192307336516
116,Talus Playground,Playground,47.5381745475853,-122.07192453805315
117,Harvey Manning Park,Park,47.53817892070937,-122.07192269554018
118,Tibbetts Valley Park,Park,47.540940143629406,-122.05870259850978
119,All Clean,Home Service,47.540924600000004,-122.06935099999998
120,Issaquah Dance Theatre,Dance Studio,47.543852735908146,-122.06108672020963
121,L15 Salon & Spa,Salon / Barbershop,47.538042,-122.04914
122,12th Ave Cafe,Breakfast Spot,47.54342566481778,-122.05042602594541
123,Five Guys,Burger Joint,47.543476,-122.050023
124,Tutta Bella Neapolitan Pizzeria,Pizza Place,47.54297198312001,-122.04774369741357
125,SpringHill Suites by Marriott Seattle Issaquah,Hotel,47.5427298,-122.05663159999999
126,Nothing Bundt Cakes,Dessert Shop,47.54308870000001,-122.050197
127,Starbucks,Coffee Shop,47.541695000000004,-122.04758999999999
128,Hot Yoga Experience,Yoga Studio,47.54241642698171,-122.0496522097085
129,Gold's Gym,Gym,47.544123900595636,-122.05335472168929
130,Madras Dosa Corner,South Indian Restaurant,47.54403272736696,-122.05533742904665
131,Potbelly Sandwich Shop,Sandwich Place,47.542524,-122.049628
132,Just Poke,Poke Place,47.542037,-122.04943300000001
133,Cafe Rio Mexican Grill,Mexican Restaurant,47.544627700562756,-122.0491239507297
134,REI,Sporting Goods Shop,47.541545899999996,-122.04879469999999
135,Noodle Boat Thai Restaurant,Thai Restaurant,47.543653801161156,-122.04704987653813
136,Top Pot Doughnuts,Donut Shop,47.54331255907844,-122.05804626038693
137,Trader Joe's,Grocery Store,47.54360575399786,-122.05172940910929
138,Target,Big Box Store,47.54218775172781,-122.05075435168034
139,Massage Envy - Issaquah,Spa,47.541669299999995,-122.0495217
140,Panera Bread,Bakery,47.5430028,-122.05000120000001
141,Wildfin American Grill,American Restaurant,47.54402196806589,-122.05052606374471
142,Elements Massage,Massage Studio,47.54335929413642,-122.04588319399755
143,Starbucks,Coffee Shop,47.54229572961867,-122.05078436095509
144,See's Candies,Candy Store,47.5424419770356,-122.04947716235351
145,Taqueria La Venadita,Mexican Restaurant,47.544539357645476,-122.04888713932804
146,Jersey Mike's Subs,Sandwich Place,47.5441623234141,-122.04838196644918
147,GNC,Supplement Shop,47.541753,-122.049739
148,Malarkey's,Sports Bar,47.54468571663526,-122.0534465790151
149,Bath & Body Works,Cosmetics Shop,47.54253344710738,-122.05020457982886
150,Rite Aid,Pharmacy,47.54409620000001,-122.0545225
151,Bigfoot Java,Coffee Shop,47.5442603573682,-122.04919881250878
152,Papa Murphy's,Pizza Place,47.54191348792093,-122.04974127318728
153,Hobby Lobby,Fabric Shop,47.5440760957716,-122.0568142994307
154,Jamba Juice,Juice Bar,47.541763,-122.048548
155,Bed Bath & Beyond,Furniture / Home Store,47.5431239,-122.0496744
156,FedEx Office Print & Ship Center,Shipping Store,47.5436185,-122.04971509999999
157,Issaquah Commons,Shopping Mall,47.541985897406796,-122.04827984851492
158,Justice,Clothing Store,47.542427356002854,-122.04994116931152
159,Lane Bryant,Clothing Store,47.544029235839844,-122.05210876464844
160,Safeway,Grocery Store,47.5415923,-122.04784409999999
161,Chipotle Mexican Grill,Mexican Restaurant,47.54334533,-122.05014117
162,Dickey's Barbecue Pit,BBQ Joint,47.54423479213554,-122.04739557940758
163,Verizon Wireless,Mobile Phone Shop,47.542344,-122.049749
164,The UPS Store,Shipping Store,47.5437002,-122.0472075
165,Mattress Firm,Mattress Store,47.54462814331055,-122.04857635498048
166,Petco,Pet Store,47.54447164614648,-122.05198672432337
167,Tao Bistro,Asian Restaurant,47.5442166973557,-122.04724921323456
168,Ross Dress for Less,Clothing Store,47.54405919180653,-122.05169606295958
169,Taco Time,Taco Place,47.54489881949615,-122.05331795153904
170,Jack in the Box,Fast Food Restaurant,47.544666417382594,-122.05000653862952
171,Taco Bell,Fast Food Restaurant,47.542074833551425,-122.04521012524796
172,J&J Chinese Restaurant,Szechuan Restaurant,47.5443372,-122.05328159999999
173,Red Corner,Chinese Restaurant,47.5445976156158,-122.05347736281068
174,Seattle Sun Tan Issaquah Gilman,Tanning Salon,47.544335718665046,-122.05592588435024
175,Rainier BBQ & Restaurant,Vietnamese Restaurant,47.54518,-122.28469
176,Q Bakery,Vietnamese Restaurant,47.546659599901005,-122.28446338937724
177,Tony's Bakery,Vietnamese Restaurant,47.54750936588518,-122.28546842936692
178,Wicked Chopstix,Vietnamese Restaurant,47.547309999999996,-122.28656200000002
179,Chief Sealth Trail,Bike Trail,47.55005664134181,-122.29456170195841
180,Redbox,Video Store,47.54635620117188,-122.2852783203125
181,Starbucks,Coffee Shop,47.54569081,-122.28505030000001
182,Thanh Thao,Vietnamese Restaurant,47.54753040403318,-122.28572408515016
183,Circle K,Convenience Store,47.546356931539144,-122.28519033956779
184,Joy Palace,Chinese Restaurant,47.547548838296755,-122.28505412801577
185,7-Eleven,Convenience Store,47.55103548184296,-122.28739410638808
186,U-Haul Storage of Othello Station,Storage Facility,47.545043,-122.285929
187,McDonald's,Fast Food Restaurant,47.545570726300106,-122.28602610063714
188,Firestone Complete Auto Care,Automotive Shop,47.55169302,-122.28903000000001
189,Vientiane Asian Grocery Store,Grocery Store,47.54638,-122.286362
190,Metro Bus Stop #55702,Bus Station,47.54642984584765,-122.2854495048523
191,Chatime,Bubble Tea Shop,47.547396,-122.284867
192,Canton Noodle House,Chinese Restaurant,47.547396,-122.284867
193,ampm,Convenience Store,47.55144726,-122.2876078
194,Pawn X Change,Pawn Shop,47.550475,-122.287254
195,Seasoned in Seattle Catering,Food & Drink Shop,47.55135339047144,-122.2887985247624
196,Seasoned in Seattle Cafe,Café,47.551357,-122.288619
197,MLK & Graham,Intersection,47.550093092552316,-122.29444878781685
198,Dearborn Park,Park,47.550063008721104,-122.29451828567964
199,Graham Street Grocery,Grocery Store,47.546099,-122.296665
200,Brighton Playfield,Park,47.54773330688477,-122.28253173828124
201,MLK Jr Way & Orcas St.,Intersection,47.55205325639268,-122.28956888514351
202,12 Scoops,Ice Cream Shop,47.551404,-122.285246
203,Slow Boat Tavern,Pub,47.55097148538536,-122.27781840894319
204,Rocket Community Fitness,Gym,47.55068504977226,-122.27709496537376
205,Spinnaker Bay Brewing,Pub,47.550755738690434,-122.27742833919753
206,Mawadda Cafe,Greek Restaurant,47.54592367387683,-122.27667435590875
207,7-Eleven,Convenience Store,47.54628078352843,-122.27565072476864
208,Delish Ethiopian Cuisine,Ethiopian Restaurant,47.551099,-122.27777900000001
209,Eyman's Pizza,Pizza Place,47.551642533778235,-122.27810765542331
210,Hillman City Parklet,Park,47.551836435781155,-122.27791540703842
211,TT Mini Mart,Convenience Store,47.55180900000001,-122.278327
212,PhilHouse,Food Court,47.54691702704419,-122.28496828329612
213,Dim-Sum House,Dim Sum Restaurant,47.54711151123047,-122.28498077392578
214,Seward Park,Park,47.550206931134966,-122.25733181932064
215,Top Of Graham Hill,Scenic Lookout,47.54641552317772,-122.267634906369
216,AKJ Architects LLC,Building,47.544564,-122.26150600000001
217,Metro stop #35060,Bus Stop,47.55107,-122.26487900000001
218,Communicating Words and Images,Art Gallery,47.543038,-122.266922
219,Seward Park Tennis Courts,Tennis Court,47.548632071243276,-122.25747799144932
220,The Pool Room,Pool Hall,47.54454923962458,-122.27237530357958
221,Seward Park Loop,Trail,47.55096672907999,-122.25698760035965
222,Seward Park Playground,Playground,47.54939497417792,-122.2563285556545
223,Seward Park Lower Picnic Grounds,Park,47.54979496549803,-122.25078225366951
224,Seward Park Amphitheater,Amphitheater,47.55052135072296,-122.2513747215271
225,Seward Park Audubon Center,Nature Preserve,47.549542708998615,-122.25631134100941
226,Seward Park Clay Studio,Arts & Crafts Store,47.549638,-122.256291
227,Seward Park Bike Path,Trail,47.550951781493815,-122.25723767640957
228,Seward Park Picnic Grounds,Park,47.55184338532594,-122.25577265612398
229,Groveland Park,Beach,47.551104135293855,-122.23354457438005
230,Island Crest Park,Park,47.55113968844851,-122.22167381995651
231,Coffee Ala Cart,Food,47.552490234375,-122.2286376953125
232,Deane's Childrens Park,Playground,47.551925,-122.222545
233,New Hope Kitchen,Thai Restaurant,47.546161,-122.21507199999999
234,Pleasure Point Bar & Grill,Beer Garden,47.550743,-122.196739
235,Shell,Gas Station,47.54525316275881,-122.19119146821724
236,Continental Carpet Care,Home Service,47.54796905,-122.18522245
237,Newport Hills Dog Park,Dog Run,47.55088712677889,-122.18518559791531
238,Resonate Brewery & Pizzaria,Brewery,47.55211632003625,-122.17758737643021
239,Terry's Kitchen,Asian Restaurant,47.552336249732285,-122.17985738066092
240,Cloud 9 Burgers,Burger Joint,47.551832670904076,-122.17882918175877
241,Newport Hills Park,Park,47.548793378822886,-122.18061266075195
242,MUSTARD SEED GRILL & PUB,Bar,47.55201561046852,-122.17764257924108
243,Newport hills park and ride,Bus Station,47.55002396080814,-122.17840999339724
244,Teriyaki Town II,Asian Restaurant,47.55118020190966,-122.17829774234018
245,Cornerstone Dance Studio,Dance Studio,47.5512126614969,-122.17811269499872
246,Sahara Pizza,Pizza Place,47.55121994018555,-122.1784896850586
247,Newport Hills Mail Boxes & Shipping Center,Shipping Store,47.55121994018555,-122.1784896850586
248,Lees Martial Arts,Martial Arts School,47.55143948306196,-122.17814514450932
249,Bill Pace Fresh Fruit & Produce,Market,47.552014,-122.177539
250,Hoag Electronics Product Design and Development Engineering,IT Services,47.543585,-122.170946
251,Stod's Baseball,Baseball Field,47.55225953747336,-122.17953455800371
252,Garage Door Repair Near Me,Home Service,47.544181,-122.171543
253,Meadow Wood Park,Playground,47.54905355,-122.1556511
254,Forest Glen Park,Playground,47.54610319914424,-122.14779307162495
255,Bellevue Parks Dept. Tennis Court,Tennis Court,47.54926922094529,-122.15649166129214
256,Samurai Jack (Jackin' it On The Road!),Multiplex,47.55159759521485,-122.15457916259766
257,Bellevue Carpet Cleaner,Carpet Store,47.54441833496094,-122.14576721191406
258,Benardout,Food,47.546982,-122.144566
259,DS Deck,Construction & Landscaping,47.54242706298828,-122.13972473144531
260,You Name It,Gift Shop,47.545163,-122.132368
261,AA Red Wings Softball,Baseball Field,47.54231103292264,-122.13155074269896
262,Cougar Mountain Regional Wildland Park,Trail,47.54806286541504,-122.11455216351507
263,Lake Sammamish State Park,State / Provincial Park,47.550639549109796,-122.076830249586
264,Issaquah Fitness,Gym,47.55066045849621,-122.07681513585837
265,Starbucks,Coffee Shop,47.55065954624981,-122.07678801762276
266,Cougar Mountain Zoo,Zoo,47.55066373659809,-122.07680989318241
267,Big Tree Ridge Trailhead - Cougar Mountain,Trail,47.550661486251926,-122.07680866920431
268,Cougar Mountain,Trail,47.550654203397066,-122.07678983537834
269,Anthology Apartments,Residential Building (Apartment / Condo),47.55076804,-122.07303751
270,Dough Zone Dumpling House #4,Dumpling Restaurant,47.5467581036567,-122.06164372467786
271,Mud Bay Issaquah,Pet Store,47.54617531845372,-122.06127027098677
272,Riverdog Canine Coaching,Pet Store,47.546504177682465,-122.06664059091922
273,Emerald City Smoothie,Juice Bar,47.546141684808035,-122.06106806826963
274,Garlic Crush,Mediterranean Restaurant,47.546010575023864,-122.06199688078225
275,Issaquah Cafe,Breakfast Spot,47.5465362467699,-122.06106438902096
276,Hilton Garden Inn,Hotel,47.546259,-122.06486890000001
277,Starbucks,Coffee Shop,47.545925,-122.05956
278,QFC,Supermarket,47.54665120000001,-122.060476
279,Gemini Fish Market,Fish Market,47.546462386147155,-122.05740413995748
280,Homewood Suites by Hilton,Hotel,47.546685499999995,-122.06528090000002
281,Naan n Curry,Indian Restaurant,47.54614989997401,-122.05843332952664
282,Baskin-Robbins,Ice Cream Shop,47.54611755190586,-122.06121620393832
283,WW (Weight Watchers),Weight Loss Center,47.5464998747221,-122.06123950162058
284,Gaslamp Bar & Grill,Pub,47.54388468970064,-122.05873511240404
285,Small Threads For Kids,Kids Store,47.54651879229897,-122.05870354235796
286,Arena Sports - Issaquah,Athletics & Sports,47.55114267389325,-122.07037125547238
287,Enterprise Rent-A-Car,Rental Car Location,47.546671,-122.058666
288,Redbox,Video Store,47.546632,-122.060436
289,Wells Fargo,Bank,47.54612568582876,-122.05709964036942
290,Firestone Complete Auto Care,Automotive Shop,47.54605827,-122.05785851
291,Chase Bank,Bank,47.545293,-122.057029
292,Burger King,Fast Food Restaurant,47.54531096279703,-122.0636884868145
293,Washington Fencing Academy,Gym / Fitness Center,47.546730189771395,-122.0654781081418
294,Hilton Great American Grill,American Restaurant,47.546235383360546,-122.06482300876257
295,IHOP,Breakfast Spot,47.55124304317852,-122.060056870703
296,Pure Indulgence,Spa,47.54607009887695,-122.06185913085938
297,Issaquah Honda Kubota,Other Repair Shop,47.544762,-122.06363200000001
298,Toshi's Teriyaki,Asian Restaurant,47.54604054776858,-122.06153953020487
299,Formula Brewing,Brewery,47.54957962036133,-122.06625366210938
300,Motel 6,Motel,47.550699,-122.06071299999999
301,Szechuan Chef,Szechuan Restaurant,47.546632,-122.060436
302,Regis Salon,Salon / Barbershop,47.546632,-122.060436
303,Gymnastics East,Gymnastics Gym,47.544628793863744,-122.0619549514058
304,McDonald's,Fast Food Restaurant,47.54531154473037,-122.05862681174669
305,Georgio's Subs,Sandwich Place,47.54606,-122.058367
306,I-90 Exit 15 Ped Overpass,Trail,47.55024381453208,-122.05968995708052
307,Issaquah Transit Center/Park & Ride,Bus Station,47.542354841827276,-122.0622625215182
308,Issaquah TC Bay 2 (#64555),Bus Stop,47.542266,-122.06244099999999
309,Issaquah TC Bay 3 (#64585),Bus Stop,47.541892,-122.06235500000001
310,I 900 Boardwalk,Trail,47.541319429848365,-122.06276404457456
311,Issaquah Farmers Market,Farmers Market,47.550086869788046,-122.04922199249269
312,Costco Food Court,Pizza Place,47.5512070322199,-122.05201175269129
313,Pier 1 Imports,Furniture / Home Store,47.5462361250873,-122.052348107099
314,Costco,Warehouse Store,47.551160369681604,-122.05248871638815
315,PCC Community Markets,Organic Grocery,47.55145262,-122.05629544
316,O'char Thai Cuisine,Thai Restaurant,47.550404624414575,-122.05601395095829
317,Barnes & Noble,Bookstore,47.54799271922856,-122.05361646440795
318,Starbucks,Coffee Shop,47.548056,-122.053627
319,Costco Pharmacy,Pharmacy,47.55136349958373,-122.05244815740184
320,iSushi,Sushi Restaurant,47.550559625515824,-122.0563051154694
321,Pickering Barn,Farm,47.55022725722778,-122.04939694668491
322,PetSmart,Pet Store,47.5477797,-122.055996
323,Mirchi,Indian Restaurant,47.550836793818064,-122.04563283610253
324,Famous Footwear,Shoe Store,47.54784774780274,-122.05320739746094
325,Red Robin Gourmet Burgers and Brews,Burger Joint,47.54917677,-122.05348529999999
326,Lowe's,Hardware Store,47.549145,-122.0565386
327,Michaels,Arts & Crafts Store,47.55032939364562,-122.05663240263675
328,Jenny Pho,Vietnamese Restaurant,47.55146293854732,-122.05500288867373
329,SUBWAY,Sandwich Place,47.5452301803796,-122.05581224613456
330,GameStop,Video Game Store,47.550583265085784,-122.05614894501363
331,Big 5 Sporting Goods,Sporting Goods Shop,47.551218210071276,-122.05583059263408
332,Pickering Square,Shopping Mall,47.54917605513101,-122.05344629606844
333,Champion Outlet,Grocery Store,47.54402160644531,-122.05558776855469
334,Maximus Minimus,Food Truck,47.55072,-122.04931
335,Costco Optical,Optical Shop,47.55128300000001,-122.052755
336,Aaron Brothers Art and Framing,Arts & Crafts Store,47.55074279745855,-122.0564808056737
337,Plateau Runner,Hobby Shop,47.546403999999995,-122.05939
338,Issaquah Soccer Fields,Soccer Field,47.55226,-122.05216499999999
339,The Beanstalk,Coffee Shop,47.552029,-122.04988300000001
340,Looks,Gift Shop,47.546632,-122.060436
341,Pool at Holiday Inn,Hotel Pool,47.55107879638672,-122.0578384399414
342,Muddies Espresso,Coffee Shop,47.55225521,-122.04971850000001
343,Seattle Gymnastics Academy Columbia City,Gymnastics Gym,47.55610186240824,-122.28549624917214
344,Tutta Bella Neapolitan Pizzeria,Pizza Place,47.55715190334728,-122.28460972897362
345,Super Six,Gastropub,47.557136966879426,-122.28551648947287
346,Billiard Hoang,Vietnamese Restaurant,47.55727219592905,-122.29048003196087
347,Flying Lion Brewing,Brewery,47.55607737024073,-122.28431863767786
348,Full Tilt Ice Cream,Ice Cream Shop,47.55606162485967,-122.28425979587568
349,Geraldine's Counter,Diner,47.557933909603825,-122.28494587146723
350,Island Soul Caribbean Bar and Cuisine,Caribbean Restaurant,47.55813901839223,-122.28529369550688
351,Columbia City Bakery,Bakery,47.55826130103014,-122.28535667425732
352,Columbia City Theater,Music Venue,47.55727496355386,-122.28448235376214
353,Columbia City Ale House,Pub,47.55743150219178,-122.28462505690443
354,La Medusa,Italian Restaurant,47.55848590327293,-122.28546572409249
355,La Teranga,African Restaurant,47.557672242194045,-122.28507419561537
356,Kezira Cafe and Restaurant,Ethiopian Restaurant,47.556114,-122.283233
357,The Royal Room,Lounge,47.55691067344525,-122.28430549160757
358,Empire Espresso,Coffee Shop,47.558534828089506,-122.28428376186069
359,Ark Lodge Cinema,Indie Movie Theater,47.559091251050226,-122.28540778167664
360,Hummingbird Saloon,Bar,47.55606238855604,-122.28407250770172
361,Huarachitos Cocina Mexicana,Mexican Restaurant,47.55289018435021,-122.28864132675214
362,Rookies Sports Bar & Grill,American Restaurant,47.557828981328115,-122.28428554993343
363,Lottie's Lounge,Bar,47.55776203283563,-122.28492878612764
364,All The Best Pet Care,Pet Store,47.55940149382838,-122.2862287362029
365,Columbia City Farmers Market,Farmers Market,47.558738160561504,-122.28761411099916
366,Molly Moon's Homemade Ice Cream,Ice Cream Shop,47.55882815470639,-122.28560363004792
367,Safari Restaurant,African Restaurant,47.55606245383086,-122.28436653681007
368,El Sombrero,Mexican Restaurant,47.55809892962339,-122.28503113156448
369,Pagliacci,Pizza Place,47.55776528321408,-122.28519040503168
370,Columbia Park,Park,47.55980389936365,-122.28750944137572
371,Starbucks,Coffee Shop,47.558765,-122.28526000000001
372,Backyard,Sports Bar,47.55802470233616,-122.28415574958721
373,Wabi-Sabi Sushi Bar and Restaurant,Sushi Restaurant,47.557621679546735,-122.28501748132184
374,Subway,Sandwich Place,47.558709359315564,-122.28549060817735
375,Jus Bar,Juice Bar,47.557638250704784,-122.28485167187063
376,The Spice Room,Thai Restaurant,47.55752705422336,-122.2851186258251
377,Shola Grocery,Convenience Store,47.558804,-122.28486399999998
378,Sam Choy's Poké to the Max,Poke Place,47.553972493063185,-122.28036468746424
379,PCC Community Markets,Organic Grocery,47.55543,-122.27388
380,Raconteur,Restaurant,47.555786142223866,-122.27046077046869
381,Third Place Books,Bookstore,47.555768046740724,-122.27047373886276
382,Bent Burgers,Burger Joint,47.55498055404208,-122.2696320477427
383,Pizzutos,Italian Restaurant,47.55603952039505,-122.2702146780137
384,Caffe Vita,Coffee Shop,47.55611614906199,-122.27023939334437
385,Hill City Tap House & Bottle Shop,Bar,47.553726236098214,-122.2805543791582
386,Bua 9 Thai Cuisine,Thai Restaurant,47.55642198607234,-122.28377150513586
387,Ideal Pet Stop,Pet Store,47.55572506199273,-122.27026810924244
388,Paris Bakery & Deli,Bakery,47.556451676495286,-122.28381817979036
389,Hitt's Hill Park,Trail,47.55420684814453,-122.28455352783205
390,Columbia City Theater Lounge,Bar,47.55730390548706,-122.284522
391,Taproot Cafe & Bar,Bistro,47.557613,-122.28457
392,Vino Verite,Wine Shop,47.55757980191046,-122.28468573391709
393,Seward Park Beach,Beach,47.55497088417897,-122.26227225002948
394,Andrew's Bay,Bay,47.557004206307965,-122.25801746866159
395,Ferdinand Street Boat Lanch,Park,47.55751055971697,-122.26227858353701
396,Seward Bay,Boat or Ferry,47.558040229334466,-122.26171327598983
397,Lakewood Playground,Playground,47.55884248414314,-122.27010982454094
398,Gay Bay (Andrews Bay),Harbor / Marina,47.55771897313236,-122.25742444260186
399,The Magnificent Forest,Park,47.554362,-122.25118300000001
400,Sqebeqsed Trail,Trail,47.556684999999995,-122.25112
401,Mercer Island Pro Locks,Locksmith,47.556972,-122.224566
402,Mercer Island Garage Door Repair,Home Service,47.55912333153678,-122.22384452819824
403,Honda Key Replacement Seattle WA,Locksmith,47.55843985860293,-122.22093164920807
404,Mercer Island Garage Door Service,Home Service,47.559948699888366,-122.22423076629637
405,Personal Injury Lawyer Issaquah,Lawyer,47.56036861914692,-122.22723484039308
406,Trio Cleaners LLC in Mercer Island,Home Service,47.56039757897173,-122.2274172306061
407,Locksmith Mercer Island,Locksmith,47.55487442016602,-122.2120361328125
408,"Vasa Park, Bellevue",Park,47.552082482146815,-122.19449867265007
409,Goodwill,Thrift / Vintage Store,47.556355267448396,-122.18881996950957
410,Goodwill Donation Station,Thrift / Vintage Store,47.555119,-122.189333
411,Newport Hills Swim & Tennis Club,Tennis Court,47.555387890800475,-122.18351723309259
412,Coal Creek Trailhead,Trail,47.553399795512206,-122.16996893364714
413,S-Mart,Grocery Store,47.552040100097656,-122.1796875
414,Shelly McGowan,Business Service,47.55862,-122.17155
415,Coal Creek Natural Area,State / Provincial Park,47.553357,-122.165651
416,Bentall Fitness Room,Gym,47.55734443582219,-122.16594432585238
417,AA Fitness Center,Gym,47.55339431762695,-122.169677734375
418,Foresthill Park,Park,47.55824451479171,-122.16446203898214
419,Gin And Suds,Racetrack,47.558259,-122.164781
420,"SEOBrandMedia, Inc.",IT Services,47.557205,-122.146669
421,Couche De Fine,Bar,47.56001,-122.14949399999999
422,Saddleback Park,Playground,47.553990987813734,-122.13825713480948
423,Alpha Heating & Air Conditioning,Home Service,47.551366,-122.139253
424,American Rose Garden,Construction & Landscaping,47.54972457885742,-122.1435775756836
425,Lewis Creek Park,Park,47.55296462764606,-122.12561689966272
426,Bigfoot Java,Coffee Shop,47.55605959295869,-122.12104391772672
427,lucky devil doughnut co,Food Truck,47.55303501260469,-122.1256115135248
428,Lewis Creek Park Visitors Center,Tourist Information Center,47.552976899312384,-122.12563768433095
429,Silverleaf Park,Tennis Court,47.552976194493596,-122.1256285434749
430,Gourmini's Food Truck,Food Truck,47.55294627122139,-122.12565633967311
431,Lakemont Highlands Park,Playground,47.55297310583352,-122.12560756734163
432,Seattle Seahawks 12 Club,American Restaurant,47.55297127722476,-122.12559635745407
433,La Riviera Maya Food Truck,Food Truck,47.552959290805894,-122.12558056986973
434,Lakemont Pizza & Grill,Pizza Place,47.55623245239258,-122.1208953857422
435,Overlook At Lakemont Apartments,Rental Service,47.55574523,-122.11956245
436,Town & Country Market,Market,47.55817868512776,-122.11519540298971
437,Lakemont Community Park,Park,47.55860737525415,-122.11465121118643
438,Starbucks,Coffee Shop,47.55852700000001,-122.114639
439,The UPS Store,Shipping Store,47.5578616,-122.11481459999999
440,Teriyaki House,Japanese Restaurant,47.55811636279499,-122.1149905655477
441,Nice Cuts,Cosmetics Shop,47.558128612277926,-122.11489633623613
442,Skate Park at Lakemont Community Park,Skate Park,47.558267944472284,-122.11466730734959
443,Deer Run Park,Park,47.553448261725855,-122.10422749779104
444,Earth Fare,Market,47.5543212890625,-122.09098815917969
445,Issaquah Paddle Sports,Sporting Goods Shop,47.554649353027344,-122.07268524169922
446,Gemini Fish Too,Food Truck,47.55081860330993,-122.07639048478028
447,Cougar Mountain Wildland Park,Trail,47.55067180939857,-122.07685109654885
448,Samammish Shore,Surf Spot,47.55067397491085,-122.07681672862049
449,Lake Sammamish State Park Playground,Playground,47.5575425167604,-122.06552811371357
450,T-Mobile,Mobile Phone Shop,47.55165152642599,-122.05795914185666
451,Snake Trail,Trail,47.55495034692576,-122.06787442309698
452,Hector's Trail,Trail,47.55493645813049,-122.0678807317704
453,Costco IT Offices,IT Services,47.551488296712606,-122.06577703932192
454,Lake Samammish Soccer Fields,Soccer Field,47.55274922998043,-122.06034291182306
455,AVP Pro Beach Volleyball Seattle Open,Volleyball Court,47.55805,-122.06456499999999
456,Lake Samammish State Park - Sunset Beach,Beach,47.558971,-122.06558500000001
457,Orenji Sushi & Noodles,Ramen Restaurant,47.55089715644733,-122.04562157908433
458,FedEx Ship Center,Shipping Store,47.55298,-122.04581599999999
459,Peasant Food Manifesto,Food Truck,47.555756925536784,-122.0496664406138
460,Taco Time,Taco Place,47.551674276525716,-122.04598879877665
461,Shiny Tea,Bubble Tea Shop,47.550349,-122.056562
462,The Gym,Gym,47.549311885485274,-122.05201170823341
463,Ezell's Famous Chicken,Fried Chicken Joint,47.56309300750488,-122.2876303509063
464,Bananas Grill,Mediterranean Restaurant,47.56204966998624,-122.29388100370605
465,Rainier Vista Boys & Girls Club,Gym,47.56260201286589,-122.2939752365552
466,Domino's Pizza,Pizza Place,47.5630935,-122.28767930000001
467,Redbox,Video Store,47.563616,-122.287353
468,Shell,Gas Station,47.563965307161986,-122.2864621509429
469,Tagla Ethiopian Cafe,Ethiopian Restaurant,47.56357280565526,-122.28819298918572
470,Adam Tailoring & Alterations,Tailor Shop,47.562256,-122.288108
471,Tiger Lily Yoga,Yoga Studio,47.564079,-122.288458
472,CrossFit RE,Gym,47.564286329565846,-122.28866005172479
473,Alaska and MLK,Intersection,47.56082886767887,-122.29271187738593
474,Providence ElderPlace - Seattle,Medical Center,47.5621039,-122.2945388
475,Trophy Bakery,Bakery,47.565491,-122.288165
476,SE Tool Library,Construction & Landscaping,47.563178,-122.295351
477,Cheasty Greenspace @ Mountain View,Park,47.56088361322401,-122.29718713668392
478,King County Metro Route 7,Bus Line,47.558710063334274,-122.29636853100493
479,Genesee Park - Soccer Fields,Soccer Field,47.56298598238189,-122.27835858169388
480,Flying Squirrel Pizza,Pizza Place,47.56416273410034,-122.27100750148695
481,Genesee Dog Park,Dog Run,47.56349501431864,-122.27668704316112
482,Genesee Park & Playground,Park,47.56448480019845,-122.27927362070429
483,Both Ways Cafe,Café,47.564243119111346,-122.27091910429706
484,SoNu Massage & Spa,Massage Studio,47.56043459869554,-122.27058634887965
485,Noah's Grocery,Grocery Store,47.56035900000001,-122.270407
486,Lake Washington Blvd Park,Park,47.561613877158365,-122.26603031158449
487,Lakewood Moorage,Harbor / Marina,47.56362020210408,-122.26733332476208
488,Lake Washington beach park,Lake,47.56522709257801,-122.26823159125273
489,Seward Park - North Beach,Beach,47.562112,-122.25323600000002
490,Andrews Bay Social Club,Sports Club,47.558119,-122.25691118295424
491,Hydros,Lake,47.562527,-122.24343700000001
492,Minnick Appraisal Service,Furniture / Home Store,47.56115337083737,-122.21594505780624
493,Ellis Pond,Lake,47.56116987072283,-122.21601293589468
494,The Hedrick Co.,Financial or Legal Service,47.565308,-122.218604
495,Hollerbach Park,Park,47.5667787675784,-122.21151290363804
496,Newcastle Beach Park,Beach,47.56585702366786,-122.1897958767674
497,Lake Washington Loop,Lake,47.56532358720731,-122.18937992213831
498,Fat Burger,Burger Joint,47.561831,-122.181341
499,Coal Creek Trailhead,Trail,47.566458000000004,-122.18046399999999
500,Coal Creek Pkway & 119th Ave SE,Intersection,47.5668536930384,-122.179256639511
501,Mercer Slough Fish Ladder,Park,47.566891232646505,-122.18041856926209
502,Newport High School Fields,Baseball Field,47.56711612108897,-122.17289864308302
503,Somerset Recreation Club,Athletics & Sports,47.56550066763454,-122.15917960522788
504,Last View Point,Scenic Lookout,47.560702,-122.154922
505,Skywalker Products,Construction & Landscaping,47.5638,-122.15536000000002
506,Lawrences Bargain Haven,Thrift / Vintage Store,47.558772,-122.15304499999999
507,Somerset Swim Club,Pool,47.56340046,-122.15722671
508,P90X,Gym,47.563232,-122.145261
509,Collingwood Mini Park,Playground,47.55950269037917,-122.12623400021214
510,Cougar Hills,Outdoors & Recreation,47.567404563117364,-122.13079949986559
511,Lattawood Park,Park,47.567457727017356,-122.13074053862076
512,Terri Morrison Catering,Food,47.559345,-122.109293
513,Jason Matias Fine Art,Photography Studio,47.56728218,-122.11227951
514,Timberlake Park,Park,47.56530603796441,-122.09593534469604
515,Lakemont Blvd and se Newport way,Intersection,47.564768,-122.099145
516,El Bee,Lounge,47.56103894491921,-122.09634799483005
517,Issaquah state park boat launch,Pier,47.56233898082046,-122.09373983658216
518,Metro Bus Stop #64594,Bus Stop,47.561772999999995,-122.089478
519,Mt Si Golf Course Driving Range,Golf Driving Range,47.56081318239826,-122.09201193530927
520,Meerwood Park,Park,47.560734235760364,-122.08509922027588
521,Chicken Hill,Trail,47.5608192660832,-122.08474918388524
522,Sunset Beach Bathhouse,Bathing Area,47.558344,-122.06473000000001
523,Lake Sammamish Boat Launch,Lake,47.56445179644654,-122.05480098724364
524,Wolf Camp and the Conservation College,Summer Camp,47.565004,-122.050702
525,Hans Jensen Park,Campground,47.56510333298518,-122.05016262081898
526,Tacos El Asadero,Food Truck,47.57127116833345,-122.29304885683884
527,Emerald City Fish and Chips,Fish & Chips Shop,47.569968658236796,-122.29076200021721
528,MOD Pizza,Pizza Place,47.56922,-122.28983000000001
529,Starbucks,Coffee Shop,47.569278999999995,-122.287947
530,Mekong Rainier Supermarket,Grocery Store,47.572854360661786,-122.29364950846308
531,Pho Bac,Asian Restaurant,47.57394781638015,-122.29453434697409
532,Thien Phat,Vietnamese Restaurant,47.573193985996255,-122.29401292244428
533,Ross Dress for Less,Clothing Store,47.56864531873745,-122.28868807653288
534,United States Postal Service,Post Office,47.57083836236892,-122.29084879159927
535,Chase Bank,Bank,47.56907545520782,-122.28789296284133
536,Enterprise Rent-A-Car,Rental Car Location,47.5702108,-122.29195020000002
537,Willie's Taste of Soul Bar-B-Que,BBQ Joint,47.57204193701894,-122.29349186187963
538,T-Mobile,Mobile Phone Shop,47.56812143748728,-122.28902041955729
539,Rainier Teriyaki,Japanese Restaurant,47.57306706778369,-122.29373958913288
540,Wingstop,Wings Joint,47.574461,-122.295028
541,Taco Bell,Fast Food Restaurant,47.56919871212689,-122.289818921262
542,Safeway,Grocery Store,47.569208700000004,-122.2881353
543,Rainier Valley Square,Shopping Mall,47.56956133464656,-122.28909056398321
544,Lake People Park,Park,47.56917937010184,-122.29418792205463
545,Heaven Sent,Fried Chicken Joint,47.572159,-122.29376200000002
546,City Art Farm,Art Gallery,47.56832504272461,-122.2949447631836
547,Mt. Baker Neighborhood - Lakewood Avenue,Scenic Lookout,47.573605992798605,-122.28686376219652
548,LINK LRV 103,Light Rail Station,47.568521999999994,-122.296838
549,Stanley Sayres Memorial Park,Park,47.57004776036421,-122.27668609902577
550,Stan Sayers Hydro Pits,Beach,47.57044284652825,-122.27724193664595
551,Lake Washington SUP,Surf Spot,47.570642164253705,-122.2776201776977
552,Adams Street Boat Ramp,Harbor / Marina,47.56500198749549,-122.26748943328856
553,franklin landing park,Park,47.570518493652344,-122.23719024658205
554,forest landing,Waterfront,47.568115999999996,-122.23340900000001
555,Towers Construction Inc.,Home Service,47.574296446946896,-122.2348630428314
556,Rotary Park,Park,47.56775222252546,-122.22144220124956
557,Ellen's Coffee,Coffee Shop,47.57420894419278,-122.22647171052785
558,Mercer Island High School Stadium,Stadium,47.57202346208355,-122.22108079268637
559,Homestead Field,Baseball Field,47.573890913054036,-122.23067129303492
560,Clise Park,Park,47.574637851346324,-122.22690790057402
561,Youth Theatre Northwest,Theater,47.573891115514066,-122.22187042236328
562,Mercer Island High School Track,Track Stadium,47.57149859506243,-122.22084523397017
563,The Archtops - Mercer Island Wine Walk,Music Venue,47.57065479999999,-122.22206729999999
564,Mercerwood Shore Club,Athletics & Sports,47.572388000000004,-122.206057
565,Newport Yacht Club,Harbor / Marina,47.57447987458289,-122.18852075172776
566,Seattle Boat Company,Boat or Ferry,47.575262380244176,-122.18792638208586
567,Bellevue Yacht Club,Port,47.575356,-122.18758999999999
568,"newport yacht basin, bellevue, wa",Boat or Ferry,47.57545864538886,-122.18823540609958
569,Ulta Beauty,Cosmetics Shop,47.573841200000004,-122.17104309999999
570,Bath & Body Works,Cosmetics Shop,47.574089744889896,-122.17155238116526
571,funtastic playtorium,Playground,47.573609940118,-122.1724589160488
572,Greek Express,Greek Restaurant,47.5739765206745,-122.17214610279284
573,Target,Big Box Store,47.57409132276948,-122.17299190452783
574,T.J. Maxx,Department Store,47.5744821,-122.17235520000001
575,Old Navy,Clothing Store,47.573705781086375,-122.1710270412792
576,Dim Sum Factory 鼎記,Dim Sum Restaurant,47.57333562680482,-122.17232776168171
577,GNC,Supplement Shop,47.574242,-122.172182
578,Famous Footwear,Shoe Store,47.57406789087808,-122.17253229466309
579,Ricardo's Mexican Restaurant,Mexican Restaurant,47.57270193041807,-122.17038135826536
580,Starbucks,Coffee Shop,47.574111099557065,-122.17285357520348
581,Big 5 Sporting Goods,Sporting Goods Shop,47.57338486710693,-122.17036793479794
582,OshKosh B'gosh,Kids Store,47.572924894269036,-122.17128931093792
583,Halloween City,Rental Service,47.573532799999995,-122.17194369999999
584,Green-Theory,Marijuana Dispensary,47.57307,-122.16825
585,BeanFish,Food Truck,47.57474509680289,-122.16855217530451
586,Mighty Moose Comics,Comic Shop,47.574354,-122.169919
587,U.S. Bank ATM,ATM,47.573664906945154,-122.16886717129823
588,Chipotle Mexican Grill,Mexican Restaurant,47.57446586629125,-122.1689595957338
589,Toshi's Teriyaki,Asian Restaurant,47.5735142465331,-122.16851060139601
590,Benton Development Inc.,Construction & Landscaping,47.570044,-122.15879
591,Edgebrook Tennis Club,Pool,47.5724846022352,-122.15999540315651
592,Bus Stop On Allen Rd,Bus Stop,47.571555287315924,-122.15843693486828
593,Vive Digital,Business Service,47.56402587890625,-122.16304779052734
594,Tyee Community Gym,Basketball Court,47.574195683323076,-122.1591210275701
595,Eastgate Park,Park,47.56777144327508,-122.14502069691451
596,Walt's Plumbing,Construction & Landscaping,47.5692181,-122.14236070000001
597,MoveFree Academy,Gym / Fitness Center,47.568481,-122.145706
598,SBCC Fitness Center,Gym,47.5690787172972,-122.14612674618206
599,YMCA,Playground,47.56878452293132,-122.1263666358996
600,Kaleidoscope,Concert Hall,47.571791,-122.122311
601,H and H Gift's Unlimited,Bakery,47.572081,-122.134181
602,The Artist Lounge,Music Venue,47.574991,-122.12775800000001
603,CBC Studios,Arts & Entertainment,47.575373,-122.128126
604,Larkspur Workout Room,Gym,47.57529595989688,-122.12989980103269
605,bus stop,Bus Stop,47.57081277179763,-122.10822098777919
606,Interstate 90 Trail,Trail,47.5745429227048,-122.11767141542464
607,Jareds Dreamliner,Airport,47.57231615129775,-122.1075614871147
608,Forty One point Five Park,Basketball Court,47.5741076254311,-122.10949593549671
609,Sambica Staff Lounge,Nightlife Spot,47.570045130459356,-122.10251637539692
610,Sunrise Park,Park,47.569985174898996,-122.10241635925884
611,Lewis creek,River,47.56826778937411,-122.10153409105402
612,Sambica Waterfront,Surf Spot,47.57044250052431,-122.10024931972026
613,The Meaney Café,Café,47.56947394224506,-122.0998678016928
614,Bellevue Trail,Trail,47.56841169624798,-122.10147358159985
615,Coruscant Theater 1,Movie Theater,47.569987551182834,-122.1023672135622
616,Dining Hall,Cupcake Shop,47.57101440429688,-122.10498809814452
617,South Cove Private Park,Park,47.57016221927581,-122.09035220502369
618,Bus Stop,Bus Stop,47.57014205360673,-122.09036234454227
619,Blackberry Park,Park,47.56867614869309,-122.086429503105
620,Palace Hotel Music,Music Venue,47.56863403320313,-122.0840301513672
621,Ambrosia,Salon / Barbershop,47.574512,-122.069153
622,Locksmith Sammamish,Locksmith,47.56872286472908,-122.05759048461914
623,"The Lamplighter Coaching, LLC",Business Service,47.57054138183594,-122.04541778564452
624,Mioposto - Mt. Baker,Pizza Place,47.57830228401118,-122.28840508461157
625,Mount Baker Park,Park,47.58031814437581,-122.28858232498169
626,Fido-n-Scratch,Pet Store,47.57822287746434,-122.28816725332449
627,Little Chengdu 小成都,Szechuan Restaurant,47.5748850469669,-122.29575610101152
628,The Original Philly's,Sandwich Place,47.57622025438254,-122.29696706250216
629,U.S. Bank ATM,ATM,47.57727912330699,-122.29699705949379
630,Ben Thanh Restaurant,Vietnamese Restaurant,47.5748659460935,-122.29592481044008
631,Starbucks,Coffee Shop,47.57684961531153,-122.29683776415777
632,76 Station,Gas Station,47.57817976641369,-122.2965534300868
633,Viengthong,Thai Restaurant,47.57767899069302,-122.29593622127777
634,Wells Fargo Rainer Ave,Bank,47.5755109,-122.29562140000002
635,Franklin High School Gym,Basketball Court,47.576047,-122.29283
636,Lowe's,Hardware Store,47.579725399999994,-122.2977626
637,The Dock,Harbor / Marina,47.578810033798284,-122.2836843886997
638,Lake Washington Park Bay,Lake,47.58287515169072,-122.28690571172308
639,Start Finish Tower,Harbor / Marina,47.575124591246535,-122.28161796141528
640,Landing Parkway,Park,47.57341339944039,-122.28096485137941
641,Eastbank Of Lake Washington,Dog Run,47.5735400329801,-122.28262767550356
642,Sierra Place,Park,47.573246921602866,-122.28246688842772
643,haim | better off,Music Venue,47.57771898717598,-122.26893281231916
644,Mercer Island Thrift Shop,Thrift / Vintage Store,47.58016438370396,-122.23463602054844
645,Mercerdale Park,Park,47.58116953927021,-122.23428017583572
646,Mercer Island Farmers Market,Farmers Market,47.582210117320024,-122.23485811043624
647,Mercer Island Skatepark,Skate Park,47.5804744356801,-122.23493343501256
648,First Hill Park,Park,47.582238000000004,-122.243378
649,mary wayte pool,Gym Pool,47.57426186984811,-122.22096785934109
650,Stroum Jewish Community Center - Mercer Island Campus,Community Center,47.57556308745289,-122.207590341568
651,I-90 running/biking trail,Trail,47.57767569312289,-122.20862653735749
652,Shorewood Heights Fitness Center,Gym,47.580361791229116,-122.21893106246685
653,Mercer Island CrossFit,Gym / Fitness Center,47.57558059692383,-122.20781707763672
654,Enatai Beach,Beach,47.57890687117585,-122.19706535339355
655,Mercer Slough Boat Launch,Harbor / Marina,47.57822324733559,-122.20163082309591
656,Mercer Island Boat Launch,Harbor / Marina,47.57783889770508,-122.20399475097656
657,Middle Of the lake,Boat or Ferry,47.57922512831698,-122.19646345728134
658,Enatai Beach Trailhead,Trail,47.580020632838284,-122.19612136393269
659,I-90 & Bellevue Way,Intersection,47.57921807827913,-122.18896642327309
660,Cafe Hue,Food,47.582519,-122.189732
661,Novilhos Brazilian SteakHouse,Brazilian Restaurant,47.577000912409105,-122.173032255305
662,Musashi's,Japanese Restaurant,47.577306449535996,-122.16900398907595
663,Katsu Burger,Burger Joint,47.57673282898204,-122.17032676437212
664,Tofu 101,Snack Place,47.57632762301228,-122.16872536269956
665,Nordstrom Rack,Discount Store,47.575513618932675,-122.17216489814757
666,MOD Pizza,Pizza Place,47.5779808,-122.16908551
667,Nike Factory Store,Shoe Store,47.574182374903934,-122.17115910907921
668,Torrid,Clothing Store,47.574382,-122.171222
669,T-Mobile,Mobile Phone Shop,47.5781254,-122.1692189
670,Jing Jing Asian Market,Grocery Store,47.577666816931284,-122.1729699145866
671,AMC Loews Factoria 8,Movie Theater,47.57913155417656,-122.17041024701321
672,Panda Express,Chinese Restaurant,47.5747549404285,-122.17096561298412
673,Taco Bell,Fast Food Restaurant,47.57735091394154,-122.16977585441437
674,Jamba Juice,Juice Bar,47.574809,-122.170978
675,Cold Stone Creamery,Ice Cream Shop,47.575207,-122.17096799999999
676,Chase Bank,Bank,47.57493337485129,-122.16988775210864
677,Claire's,Accessories Store,47.574825487410024,-122.17138051986694
678,Redbox,Video Store,47.57700638926614,-122.1698632564159
679,KFC,Fried Chicken Joint,47.576677000000004,-122.171609
680,Subway,Sandwich Place,47.577304864082755,-122.16888573317145
681,Circle K,Convenience Store,47.5766526,-122.169923
682,Top Gun Seafood Restaurant,Dim Sum Restaurant,47.5780345813118,-122.17260626576237
683,Rite Aid,Pharmacy,47.575518,-122.171346
684,Panera Bread,Bakery,47.57455244933839,-122.1709833748173
685,Jimmy John's,Sandwich Place,47.57638611861896,-122.1686005817568
686,Thai Ginger Restaurant,Thai Restaurant,47.57678627120331,-122.16994285583496
687,Supercuts,Salon / Barbershop,47.577027,-122.17069
688,KeyBank,Bank,47.57782054528735,-122.16906692667754
689,El Tapatio,Mexican Restaurant,47.577421768754576,-122.16846928210528
690,FedEx Office Print & Ship Center,Shipping Store,47.577931400000004,-122.16907990000001
691,Romio's Pizza & Pasta,Pizza Place,47.57795201955231,-122.16997136245877
692,7-Eleven,Convenience Store,47.57705224144969,-122.17000924968544
693,DSW Designer Shoe Warehouse,Shoe Store,47.574853000000004,-122.171972
694,Sideline Sports Bar,Sports Bar,47.57734407180414,-122.16877621165234
695,Happy Melon Bakery & Deli,Bakery,47.57774353027344,-122.17317962646484
696,Starbucks,Coffee Shop,47.57743781292843,-122.16899140359658
697,Red Robin Gourmet Burgers and Brews,Burger Joint,47.57532401,-122.17156670000001
698,Shanghai Cafe,Chinese Restaurant,47.576684924758474,-122.1703958013884
699,Marketplace at Factoria,Shopping Mall,47.57460482115761,-122.17148428899135
700,Outside the Box,Food Truck,47.582633607534646,-122.17993059106571
701,Square Lotus,Vietnamese Restaurant,47.57930151283404,-122.16747966552236
702,Great Harvest Bread Company,Sandwich Place,47.5782785545525,-122.16752770240831
703,Sacks Gourmet Sandwiches,Sandwich Place,47.577508348022306,-122.16744970750808
704,I Love Pho,Vietnamese Restaurant,47.575479,-122.16877
705,West Coast Armory Indoor Range,Gun Range,47.58209306624725,-122.16377540534559
706,Seattle Humane Society,Animal Shelter,47.58102184458426,-122.1640737427312
707,Saigon Deli,Vietnamese Restaurant,47.575855875741006,-122.16864619339488
708,Starbucks,Coffee Shop,47.57819477,-122.1674693
709,Petco,Pet Store,47.57898346490284,-122.16755312904026
710,Peet's Coffee & Tea,Café,47.578573,-122.16723799999998
711,Crisp Creperie,Food Truck,47.57763072947882,-122.16662101549778
712,Seattle Sun Tan,Tanning Salon,47.57744673313936,-122.16791845398777
713,Ooba Tooba,Mexican Restaurant,47.57581837384014,-122.16831939758156
714,Shanghai House Restaurant,Asian Restaurant,47.5763291940587,-122.16836397075417
715,Great Clips,Salon / Barbershop,47.577209499999995,-122.1675345
716,Boulangerie Bakery & Cafe,Bakery,47.57530305438768,-122.16882581215653
717,Greek Pita,Mediterranean Restaurant,47.577356826931066,-122.16765669705305
718,Domino's Pizza,Pizza Place,47.577303763419074,-122.16808140277864
719,The UPS Store,Shipping Store,47.5757005,-122.16841289999999
720,Bartell Drugs,Pharmacy,47.57804108832963,-122.1674934617774
721,Tokyo Japanese Restaurant,Japanese Restaurant,47.57933764876915,-122.16787929002899
722,Tasty Thai,Thai Restaurant,47.57744673537166,-122.16784055088928
723,CrossFit Bellevue,Gym / Fitness Center,47.58267747066288,-122.16126836666956
724,Applebee's Grill + Bar,American Restaurant,47.57886652,-122.16822450000001
725,Honda of Bellevue,Automotive Shop,47.57917582643194,-122.163140721666
726,FedEx Office - Factoria,Shipping Store,47.57540512084961,-122.16868591308594
727,QFC,Supermarket,47.57880460000001,-122.16753510000001
728,Kung-Ho Chinese Restaurant,Chinese Restaurant,47.57744324967329,-122.16744418218144
729,Taco Time,Taco Place,47.57505188285487,-122.16899005200649
730,Southgate Oriental Grocery,Grocery Store,47.57529527239637,-122.16864948572008
731,Factoria Village,Shopping Mall,47.57660879604974,-122.16745437183522
732,T-Mobile Newport Terrace,Office,47.578820441647046,-122.16669260891823
733,Dacels Jewelers,Jewelry Store,47.57934032366425,-122.16818147196942
734,Istanbul Cuisine,Turkish Restaurant,47.576962,-122.17068200000001
735,Bellevue Gun Club Inc.,Gun Shop,47.5824089050293,-122.16365814208984
736,PrimeSpine Bellevue Chiropractic and Massage Center,Chiropractor,47.572211702517976,-122.16834346649769
737,Hyatt House Seattle/Bellevue,Hotel,47.58067,-122.15424099999998
738,The Box,Food Truck,47.582174110437,-122.15340687120556
739,Sister's Cafe,Café,47.583003359826854,-122.15389708594554
740,Eastgate P&R Bay 1 (Stop #67014),Bus Station,47.58046745223195,-122.15266906149472
741,Poppinjay's Cafe,Café,47.5807710004998,-122.15613708748822
742,Sunset North Fitness Center,Gym,47.58304672853542,-122.15407406911436
743,India Gate Restaurant,Indian Restaurant,47.58103060000001,-122.1392864
744,Massage Envy - Bellevue Eastgate,Spa,47.5765286,-122.1370354
745,Cypress Coffee,Coffee Shop,47.58147771453783,-122.14012660799791
746,Rite Aid,Pharmacy,47.5766054,-122.1366162
747,Starbucks,Coffee Shop,47.576609999999995,-122.13836
748,Starbucks,Coffee Shop,47.58190127,-122.134952
749,Pizza Hut,Pizza Place,47.57763488337738,-122.13759139180185
750,Lil Jon Restaurant and Lounge,Diner,47.5820255742057,-122.13878416450632
751,Outback Steakhouse,Steakhouse,47.57672422959168,-122.13620194708253
752,Redbox,Video Store,47.5767486171199,-122.13794229870052
753,Deseret Book,Bookstore,47.58184094400837,-122.13935188395756
754,Snap Fitness,Gym,47.576531356816474,-122.13769682076843
755,Michael's Toyota of Bellevue,Auto Dealership,47.58198,-122.14017
756,Redbox,Video Store,47.580977000000004,-122.135741
757,Nine O,Hotel Bar,47.579929290646106,-122.14384930038
758,South Gate Garden,Korean Restaurant,47.57669194368907,-122.14049716379023
759,Silver Cloud Hotel,Hotel,47.58001120876109,-122.14387655505415
760,Teriyaki & More,Japanese Restaurant,47.58159680695122,-122.13942065433258
761,Bombay House,Indian Restaurant,47.576686319942894,-122.1372776628889
762,Subway,Sandwich Place,47.581737264917926,-122.13996090584442
763,7-Eleven,Convenience Store,47.58146432352451,-122.135788947343
764,Safeway,Grocery Store,47.576437299999995,-122.13808540000001
765,Se 37th And 150th,Intersection,47.576717237131774,-122.1401139598256
766,Amazon Hub Counter (Bellevue),Shipping Store,47.578014,-122.13655
767,Attorney At Law John WS Acheson III,Lawyer,47.57500076293945,-122.1407699584961
768,McDonald's,Fast Food Restaurant,47.58127741889036,-122.13617419513956
769,Cascades Grille,Breakfast Spot,47.58089026425884,-122.13440263707115
770,Seattle Biscuit Company,Food Truck,47.579564395829884,-122.13525632147206
771,Gourmet Sichuan Chinese Restaurant,Chinese Restaurant,47.581034,-122.137204
772,Days Inn Bellevue Seattle,Hotel,47.58121105729398,-122.13669917794044
773,Garlic Jim's,Pizza Place,47.58194,-122.13937999
774,Trailer Inns RV Park of Bellevue,RV Park,47.57680389999999,-122.1327047
775,Fitness Center,Gym,47.58103506424137,-122.13428526818387
776,Higher Leaf,Marijuana Dispensary,47.5821011263176,-122.13484671141836
777,Spiritridge Park,Park,47.58076368121693,-122.1279498413929
778,Larkspur Landing Bellevue,Hotel,47.57559997540661,-122.12976178627524
779,Vasa Park,Beach,47.5770991684266,-122.11283631998268
780,888 Bus Stop,Bus Stop,47.58201,-122.112094
781,Big Block Brewing Taproom,Brewery,47.57983581101645,-122.07426243122707
782,7-Eleven,Convenience Store,47.579956195120495,-122.074555298332
783,Kryptonite Bar & Grill,Pizza Place,47.579214,-122.07405800000001
784,Urban Oasis Yoga,Yoga Studio,47.57978691263932,-122.07493632473087
785,Radcliffe Steak and Seafood,Steakhouse,47.579546,-122.074339
786,Warrior Fitness Kickboxing,Gym,47.57973500888441,-122.07462508644652
787,Rockmeadow Equestrian Center,Stables,47.579698799999996,-122.0631314
788,School Bus Stop @ SE 34th St,Bus Stop,47.579206,-122.057957
789,Hoop's Devil House,Pub,47.572096038598296,-122.0529556274414
790,Colman Park,Park,47.58615100335924,-122.28763818740843
791,Mount Baker Beach,Beach,47.58324126108919,-122.28727592309194
792,QED Coffee,Coffee Shop,47.589677274544194,-122.29235845256642
793,Mt Baker Ridge Viewpoint,Scenic Lookout,47.58974605166203,-122.2924320432909
794,East Portal Viewpoint,Scenic Lookout,47.59041207921039,-122.28891070892188
795,Amy Yee Tennis Center,Gym / Fitness Center,47.58425536911896,-122.2979000914145
796,Heyday,New American Restaurant,47.59047650413974,-122.2923673292927
797,Mt. Baker Bike Tunnel,Trail,47.59067444267002,-122.28855212602836
798,That's Amore Italian Cafe,Italian Restaurant,47.58957685031525,-122.29257636781612
799,College Street Park,Park,47.58260550887464,-122.29434835858056
800,Bradner Gardens,Garden,47.58734518258507,-122.29532127685872
801,"Martin Luther King, Jr. Memorial Park",Park,47.58428412552721,-122.29647625501524
802,Dahlia Spa,Spa,47.589553,-122.292219
803,MLK Jr. Memorial Park,Park,47.58348932484421,-122.29679942338531
804,Iconiq,French Restaurant,47.58966064453125,-122.29267120361328
805,Ridge Fitness,Gym,47.589982859517384,-122.29230309090065
806,I90 Stairs,Trail,47.59032270703921,-122.28595915073288
807,Day Street Park,Park,47.59044157723922,-122.286317139642
808,Oktay Gürçay Bağ Home's,Botanical Garden,47.58838653564453,-122.26801300048828
809,Slater Park,Scenic Lookout,47.58420972222642,-122.25295484493549
810,Calkins Landing,Beach,47.585194435781204,-122.2531080545514
811,Secret Park,Park,47.587038,-122.248447
812,I-90 Tunnel,Tunnel,47.59050715412527,-122.24924636916988
813,Oh! Chocolate,Chocolate Shop,47.58649000000001,-122.238091
814,Mioposto,Italian Restaurant,47.58699954440917,-122.237913485459
815,Sushi Joa,Sushi Restaurant,47.586163829612005,-122.23403027480938
816,Shawn's Cafe & Bakery,Café,47.589374490524214,-122.23937537877724
817,Mo's Pizza,Pizza Place,47.58673908255657,-122.23445729219101
818,Island Books,Bookstore,47.58352612373146,-122.23263498660549
819,Einstein Bros Bagels,Bagel Shop,47.585696917629996,-122.23301365971564
820,Yogabliss,Yoga Studio,47.585934309976395,-122.2330302886171
821,Menchie's,Frozen Yogurt Shop,47.58669345919342,-122.23418723086044
822,Pagliacci Pizza,Pizza Place,47.58194088845988,-122.23382517850081
823,Homegrown,Sandwich Place,47.5834812665073,-122.2327534112145
824,QFC,Supermarket,47.5849247671901,-122.23269604607592
825,Bennett's,New American Restaurant,47.58684724480561,-122.2361146329692
826,All the Best Pet Care,Pet Store,47.5824508591576,-122.23433453573492
827,Anise Thai Cuisine,Thai Restaurant,47.586520888779155,-122.23534108678896
828,Starbucks,Coffee Shop,47.5851149619185,-122.23279315031704
829,Starbucks,Coffee Shop,47.58640062,-122.2352545
830,U.S. Bank ATM,ATM,47.585708000000004,-122.23427186
831,Redbox,Video Store,47.58498764038086,-122.23575592041016
832,Qdoba Mexican Grill,Mexican Restaurant,47.5868855,-122.23573929999999
833,Convivial,Bakery,47.583241,-122.232572
834,The UPS Store,Shipping Store,47.58639610738447,-122.23561220685951
835,KeyBank,Bank,47.58612120000001,-122.23539099999999
836,Great Clips,Salon / Barbershop,47.585613,-122.2331364
837,Starbucks,Coffee Shop,47.58701,-122.2369
838,Walgreens,Pharmacy,47.5861984,-122.2344876
839,Pon Proem Thai,Thai Restaurant,47.582370179895754,-122.23441814310812
840,Baskin-Robbins,Ice Cream Shop,47.58440527861194,-122.23333214588159
841,Subway,Sandwich Place,47.58640005455808,-122.23565464416292
842,The Islander,Bar,47.587959325274994,-122.23803554072548
843,Gourmet Teriyaki,Japanese Restaurant,47.58643722608257,-122.2357969846438
844,Mercer Island Stairs,Gym / Fitness Center,47.584673166275024,-122.23848464285713
845,Chase Bank,Bank,47.585683,-122.23206299999998
846,Rite Aid,Pharmacy,47.582809999999995,-122.23456429999999
847,Island Broiler,Asian Restaurant,47.5861930847168,-122.23416900634766
848,Chicks Shoes And Service,Shoe Store,47.586415,-122.235797
849,Shell,Gas Station,47.584014696296606,-122.2339401650724
850,Phat 12,Restaurant,47.586265999999995,-122.234181
851,Mercer Island Florist,Flower Shop,47.583342,-122.233341
852,Tully's Coffee Drive Thru,Coffee Shop,47.58201,-122.233876
853,Shell,Gas Station,47.58536618485015,-122.23219544039301
854,Mercer Island Community & Event Center,Event Space,47.58993860009284,-122.22756357011856
855,Maggie Moo's,Ice Cream Shop,47.58613967895508,-122.23284912109376
856,Covenant Shores Boat Slip,Harbor / Marina,47.585046999999996,-122.21493400000001
857,Boat Dock,Harbor / Marina,47.583006,-122.215221
858,Bus Stop #64032,Bus Stop,47.580890000000004,-122.21934499999999
859,Pagliacci Pizza,Pizza Place,47.584701718228324,-122.22280025579036
860,Chesterfield Beach Park,Beach,47.58812713623047,-122.20503997802734
861,Enatai Park,Playground,47.58838730919632,-122.19644237138512
862,Mercer Slough Blueberry Farm,Farm,47.58907274827717,-122.1913691642046
863,Lake to Lake Trail,Trail,47.58524839065347,-122.18882305540444
864,Metro Bus Stop #84268,Bus Station,47.58617090344054,-122.19080239534378
865,Bellevue Fine Art Reproduction,Arts & Crafts Store,47.583822,-122.190948
866,Mercer Slough North Bridge,Park,47.588977,-122.191319
867,Mercer Slough Nature Park,Park,47.585929523258216,-122.18051212861195
868,Norwood Tennis Courts,Athletics & Sports,47.58951,-122.1738
869,I-90 / I-405 Interchange,Intersection,47.57997907668012,-122.17484882141714
870,Maximum Sports Conditioning,Gym / Fitness Center,47.583568,-122.160579
871,Stage Left Dancewear,Boutique,47.58233,-122.161254
872,Bellevue College Media Center,Video Store,47.58396476741608,-122.14946375393517
873,Carlson Theater,Performing Arts Venue,47.58326653599354,-122.14931740714424
874,Bellevue College Garage,Parking,47.58506878287457,-122.14816411247813
875,Bellevue College - Field,College Track,47.587742175615475,-122.15002288979471
876,Eastgate P&R Bay 2 (Stop #67015),Bus Station,47.580436,-122.151944
877,H Bar at the Hyatt House,Bar,47.580513332494796,-122.15429186079687
878,Cafe Aura,Café,47.5806845132428,-122.15605470379765
879,5 Stones Coffee Co,Coffee Shop,47.585846000000004,-122.14352
880,Robinswood Park,Park,47.590347549151105,-122.14051585485258
881,Robinswood Dog Park - West,Dog Run,47.587610129099744,-122.14227278816185
882,Great American Insurance,Insurance Office,47.5842200920277,-122.1365743964103
883,Precision Bowling,Bowling Alley,47.58198547363281,-122.14017486572266
884,Robinswood Dog Park - East,Dog Run,47.58853989302311,-122.13772849381672
885,Robinswood Tennis Center,Tennis Court,47.58881252029743,-122.13775064192085
886,Tully's Coffee,Coffee Shop,47.589864137669636,-122.13674008085914
887,Enterprise CarShare,Rental Car Location,47.585807,-122.14801999999999
888,Bellevue College Bookstore,College Bookstore,47.584991755680285,-122.14813065373743
889,SE Eastgate Way and 156th Ave SE,Intersection,47.57943601051176,-122.13764709442827
890,Boeing Bellevue Health And Fitness,Gym,47.5866708410437,-122.12498198577113
891,Advanta Cafe,Cafeteria,47.58386228107008,-122.13084786718102
892,Hott Solutions Help Desk,IT Services,47.583042,-122.121349
893,Phantom Lake Fishing/viewing Deck,Fishing Spot,47.58927170069384,-122.12563230265988
894,Phantom Lake Pool And Tennis,Pool,47.58933816688089,-122.12884362357988
895,Weowna Park,Trail,47.587547993132134,-122.11090984949688
896,Evergreen Park,Park,47.583712,-122.112222
897,Little Store,Convenience Store,47.58761476575282,-122.11091863590237
898,AGC Electric,Other Repair Shop,47.58829630639529,-122.06626255609558
899,Made For Success Publishing,Business Service,47.58607,-122.07248999999999
900,Pine lake blueberry farm,Farm,47.583277,-122.05331299999999
901,Electromagnetic Software,Electronics Store,47.58076858520508,-122.04719543457031
902,Starbucks,Coffee Shop,47.593994140625,-122.29427337646484
903,31st and Norman Bus Stop with a View,Bus Stop,47.593466,-122.292983
904,Day Street Boat Ramp,Pier,47.59050298208759,-122.2864647916072
905,The Lundgren Yacht Club,Lake,47.596135,-122.286829
906,All My Kitties,Pet Store,47.596476,-122.292008
907,Metro Bus Stop #43765,Bus Stop,47.590626,-122.297374
908,Seattle Design Center,Food,47.597218,-122.294706
909,Aubrey Davis Park,Park,47.59216667631704,-122.24438761210979
910,West I-90 Lid Park,Park,47.59064085736001,-122.24854601476393
911,Roanoke Park,Park,47.59046227664207,-122.24505094541573
912,Roanoke Inn,Bar,47.593980832066535,-122.24335375080769
913,Feroglia Fields,Baseball Field,47.59241374043882,-122.24258585835236
914,Luther Burbank Park,Park,47.59096106455613,-122.22606004769257
915,Luther Burbank Dog Park,Dog Run,47.59408207045143,-122.22609002165709
916,Amphitheatre @ Luther Burbank Park,Amphitheater,47.591996741858644,-122.22661392211424
917,Flourish and Nourish,Gym / Fitness Center,47.59113,-122.23203999999998
918,Luther Burbank Swimming Beach,Beach,47.587993373853685,-122.22451749641958
919,Mercer Island Park & Ride,Bus Line,47.588640620208324,-122.23236870433362
920,SoundTransit - Bay 1,Bus Station,47.58876116255518,-122.23261746333158
921,Upper Luther Burbank,Park,47.587027038939,-122.22928903120777
922,Hope 4 Kids WA,Business Service,47.59239419258853,-122.20966672888608
923,Burrows Landing Park,Park,47.5975119829759,-122.20987588302376
924,Chace's Pancake Corral,Breakfast Spot,47.59630684569365,-122.19799470092676
925,Killarney Glen Park,Park,47.59325285769207,-122.20190119317805
926,550 Express Bus Stop,Bus Station,47.59676612598997,-122.19839731488085
927,Dilettante Mocha Café,Coffee Shop,47.597995941957215,-122.1880402461203
928,The SWAMP,Lake,47.5954011114195,-122.1905332493976
929,Coinstar Cafe,Cafeteria,47.5959337862568,-122.18949262451756
930,Bellefields Nature Park,Park,47.5914364832356,-122.18300087031271
931,Pepper Tree Burrito Cafe,Burrito Place,47.59803786271549,-122.18805698418964
932,Mercer Slough Environmental Education Center,Other Great Outdoors,47.596047453627826,-122.183015197442
933,Norwood Village Park,Park,47.58969897822433,-122.1752876065176
934,Bannerwood Sports Park,Baseball Stadium,47.59484398580965,-122.16314500097752
935,Skyridge Park,Park,47.59219212744953,-122.15886283632588
936,Sandwich House TRES,Sandwich Place,47.59693539480037,-122.1500632735424
937,Sunset Spa & Tanning,Tanning Salon,47.597042,-122.149827
938,Tokyo Stop Teriyaki,Japanese Restaurant,47.596945717349406,-122.14971567666548
939,Papa Murphy's,Pizza Place,47.59702590844983,-122.14973868965704
940,Redbox,Video Store,47.596853,-122.148497
941,Shell,Gas Station,47.595913335555785,-122.14966570563223
942,NW Yacht Charters,Fishing Spot,47.59297,-122.15106999999999
943,Jumpeet,Kids Store,47.590717,-122.148402
944,Combo Restaurant,Chinese Restaurant,47.59562903473073,-122.14919796640724
945,Starbucks,Coffee Shop,47.59668356373689,-122.14876291128202
946,Action Small Appliance,Furniture / Home Store,47.597018,-122.15020978333334
947,Spiritwood Park,Park,47.59429168701172,-122.14572143554688
948,KeyMe,Locksmith,47.59687,-122.14846999999999
949,Metro #271 Lake Hills stop,Bus Stop,47.59828306413875,-122.15148428383516
950,QFC,Supermarket,47.5967529,-122.14883300000001
951,Lake Hills Greenbelt,Forest,47.59642338668002,-122.13319136507477
952,North Robinswood Sportsfield,Baseball Field,47.594746081025036,-122.14047735566903
953,Bellevue Park Ranger Station,Park,47.596604,-122.134129
954,Phantom Lake,Lake,47.59258710007554,-122.12901972655328
955,Hot Flavours,Kerala Restaurant,47.59077453613281,-122.12200164794922
956,Lake Hills Greenbelt Produce Stand,Farmers Market,47.59640328501114,-122.13202088126594
957,Master Demonstration and Community Gardens -- Lake Hills,Garden,47.59643869152542,-122.13298243450086
958,Lake Hills Soccer Club,Sports Club,47.597602,-122.13114399999999
959,Old Man Rivers Place,Campground,47.59417343139648,-122.1123275756836
960,Sammamish Beach Club,Beach,47.58771133422852,-122.11060333251952
961,Le Beach,Beach,47.5911257191681,-122.08583055822321
962,The Crossings Park Playground,Playground,47.592999710619104,-122.05799570470629
963,The Crossings Park Basketball Court,Basketball Court,47.594840459360505,-122.05814366224054
964,faith farm,Farm,47.59694097229517,-122.05905431225176
965,Brock O'Connor Baseball Field,Baseball Field,47.59061957924385,-122.05653162049246
966,Leschi Park,Park,47.60143295516684,-122.28569579803232
967,Meet the Moon,Café,47.60224872522029,-122.2849774633044
968,Central Pizza,Pizza Place,47.599191917678006,-122.29482716621868
969,BluWater Bistro - Leschi,American Restaurant,47.601827050705566,-122.28510086113005
970,Leschi Food Mart  ( Leschi Market ),Grocery Store,47.60190346646864,-122.28538592643213
971,Daniel's Broiler,Steakhouse,47.60294366584356,-122.28405533698849
972,Quick Pack Food Mart,Grocery Store,47.59941363955525,-122.29784183771204
973,Cappy's Boxing Gym,Gym,47.599240959565925,-122.29826519897394
974,Starbucks,Coffee Shop,47.602033065203116,-122.28513241072659
975,Frink Park,Park,47.59918936213053,-122.28916168212886
976,Leschi Marina,Harbor / Marina,47.601961049884004,-122.28481251742585
977,CrossFit 206,Gym,47.602086,-122.284788
978,Dorothea Coffee,Coffee Shop,47.59940639943628,-122.29557752609252
979,park postal,Shipping Store,47.6028064564737,-122.28471065315723
980,Leschi-Lake Dell Natural Area,Park,47.60476684570313,-122.28697204589844
981,Every Body Health & Fitness,Gym / Fitness Center,47.599173,-122.298258
982,The Whiskey Run,Boat or Ferry,47.598208,-122.227544
983,Calkins Point,Scenic Lookout,47.595143,-122.22748500000002
984,Chism Beach Park,Beach,47.60017325737256,-122.211012840271
985,Beaux Arts beach front,Beach,47.60210302211628,-122.20746910622526
986,Bellevue Nursery,Garden Center,47.601628051029564,-122.20124027145613
987,Bellevue Memorial Stadium,Soccer Field,47.60245707877032,-122.1977509604154
988,Sixth Street Park,Park,47.60489000000001,-122.204975
989,W Hotel,Hotel,47.604417,-122.20706299999999
990,Bellevue Club,Gym / Fitness Center,47.605763665880076,-122.18938521169771
991,Residence Inn,Hotel,47.6037229,-122.18655919999999
992,Hotel Bellevue,Hotel,47.605278045973606,-122.18984553307457
993,Polaris,American Restaurant,47.6052559365848,-122.18969683094078
994,Surrey Downs Park,Park,47.60366511229531,-122.19186572028292
995,Aqua Quip,Spa,47.60063579999999,-122.18412839999999
996,Residence Inn Pool,Hotel Pool,47.60393300000001,-122.186493
997,Residence Inn Gym,Gym,47.60372737570075,-122.18600539131224
998,Lake Hills Crossfit,Gym,47.598842100568625,-122.1835470199585
999,Cosmos Lounge,Lounge,47.60523987382101,-122.18973636605877
1000,Luna - Bellevue Club,Café,47.60528049027299,-122.18914897312334
1001,Bellevue Club Tennis,Tennis Court,47.60538652642253,-122.18987929673322
1002,Bellevue Club Basketball Courts,Basketball Court,47.60568549721318,-122.1897898554995
1003,Splash - Bellevue Club,American Restaurant,47.60570810817347,-122.18999670896014
1004,International School Bellevue,Performing Arts Venue,47.604372114637464,-122.17122994371151
1005,Lake to Lake Trail,Trail,47.60172725253775,-122.1738727177513
1006,Route 271 | King County Metro,Bus Line,47.60369951263663,-122.1760739610056
1007,The Seamstress,Tailor Shop,47.598384,-122.17173
1008,Greenbaum Home Furnishings,Furniture / Home Store,47.600903367543246,-122.1834902867387
1009,Music Works NW,Music Venue,47.599054,-122.183594
1010,Chewaya Moroccan BBQ,Food Truck,47.60122043777663,-122.18475124287257
1011,Lee Hecht Harrison,Business Service,47.601034399999996,-122.18480770000001
1012,McTavish Trail,Trail,47.597691999999995,-122.16990700000001
1013,Kelsey Creek Park,Park,47.60488239767633,-122.1661984497623
1014,Kelsey Creek Farm,Farm,47.6051,-122.16536
1015,Aedens,Food,47.604078,-122.157047
1016,Nabreya's House Cleaning,Home Service,47.605448,-122.149618
1017,Larsen Lake Blueberry Farm,Farm,47.60353891248611,-122.14234358657913
1018,Kneady Body & Feet,Spa,47.599368300446265,-122.1417540006206
1019,Samena Swim & Recreation Club,Daycare,47.602376,-122.137184
1020,Larsen Lake,Lake,47.605224301275655,-122.14036585989209
1021,Metro Bus Stop #226,Bus Stop,47.59518085231424,-122.1425796510155
1022,HardWok Cafe 路邊小棧,Taiwanese Restaurant,47.60440621543204,-122.13247826710888
1023,The Waffler,Breakfast Spot,47.604627002618884,-122.13233961599717
1024,Lake Hills Park,Park,47.59928601337351,-122.12149996754385
1025,Lake Hills Shopping Mall,Shopping Mall,47.603622074336215,-122.1314858092108
1026,Hot Pass,Noodle House,47.603987430030756,-122.13114769174273
1027,Buns On Wheels,Food Truck,47.60412742302106,-122.12358276849727
1028,MeetFresh 鮮芋仙,Dessert Shop,47.603655479089184,-122.13216037660706
1029,Chatime,Bubble Tea Shop,47.603521,-122.132471
1030,Mighty Dollar Store,Discount Store,47.60380935668945,-122.13258361816406
1031,Lake Hills Village,Shopping Plaza,47.604153,-122.132719
1032,Little Tings Dumplings And Clay Pot,Chinese Restaurant,47.604153,-122.132719
1033,Shabu Shabu Kyoto,Japanese Restaurant,47.604745,-122.132252
1034,ElderMove Alliance,Home Service,47.60479,-122.12187
1035,Lake Sammamish Yacht Club,Harbor / Marina,47.59789,-122.109851
1036,168th Ave SE Lion,Sculpture Garden,47.60532667479593,-122.11742079373623
1037,East Lake Sammamish Trail,Trail,47.59811863157855,-122.08102226257324
1038,Dish Network,Business Service,47.6024448271817,-122.07472443580627
1039,Lake House Bed & Breakfast,Bed & Breakfast,47.60546875,-122.07698059082031
1040,Ebright Creek Park,Park,47.597758003950474,-122.05807530757332
1041,SE 8th Street Park,Park,47.60171205693172,-122.04883713435595
1042,Big Rock Park,Park,47.60045623779297,-122.04808044433594
1043,Arbors School Bus Stop,Bus Stop,47.604266535054435,-122.05672770316536
1044,Golden Wheat Bakery,Bakery,47.60806530527562,-122.29447645104842
1045,Madrona Playground,Playground,47.61104374626671,-122.29007898839347
1046,Fat's Chicken & Waffles,Fried Chicken Joint,47.60815345682127,-122.29644248006271
1047,Cafe Selam,Ethiopian Restaurant,47.60786326046941,-122.29730498390884
1048,Cherry Street Thai,Thai Restaurant,47.608061939493176,-122.29655615650931
1049,Ras Dashen Ethiopian Restaurant,Ethiopian Restaurant,47.607762,-122.295655
1050,Vendemmia,Italian Restaurant,47.61245956512908,-122.28927116103114
1051,Madrona Park,Beach,47.60988099626664,-122.28278875350952
1052,Bottlehouse,Wine Bar,47.613475912356726,-122.2891614005053
1053,Hi Spot Cafe,Coffee Shop,47.61333474516256,-122.28921328826408
1054,Glassybaby,Gift Shop,47.613013027983676,-122.28896141784556
1055,Molly Moon's Homemade Ice Cream,Ice Cream Shop,47.613223024290114,-122.289284197839
1056,Bistro Turkuaz,Turkish Restaurant,47.612049996314404,-122.28924766424407
1057,Cafe Soleil,Ethiopian Restaurant,47.61297138770175,-122.28921446700869
1058,Cupcake Royale and Verite Coffee,Cupcake Shop,47.61171601481659,-122.28949341221214
1059,Powell Barnett Park,Playground,47.604746999999996,-122.296219
1060,Madrona Arms,Bar,47.61283800218885,-122.28921800958618
1061,Red Cow,French Restaurant,47.613560442943786,-122.28938230779569
1062,June,Asian Restaurant,47.613612656408996,-122.28937783385996
1063,Naam Thai Cuisine,Thai Restaurant,47.61308067600994,-122.28923452812792
1064,Assimba,Ethiopian Restaurant,47.60812229386829,-122.2966631477999
1065,Vérité Coffee,Coffee Shop,47.61168413404614,-122.28951367598566
1066,Mountain Flow Yoga,Yoga Studio,47.611815,-122.289852
1067,Zagol Ethiopian restaurant,Ethiopian Restaurant,47.608152,-122.296629
1068,Madrona Wine Merchants,Food & Drink Shop,47.612491,-122.28957
1069,Spectrum Dance Theater,Dance Studio,47.60903040908304,-122.28292062456593
1070,Madrona Beach fishing pier,Fishing Spot,47.60588807509345,-122.28321180753427
1071,Madrona Beach,Beach,47.608945,-122.28274499999999
1072,Cameos & Crowns,Gift Shop,47.61273956298828,-122.28945922851562
1073,Guesthouse,Furniture / Home Store,47.612745,-122.289553
1074,Peppi's Playground,Playground,47.602734594699534,-122.29099178357365
1075,Madrona Market and Deli,Food & Drink Shop,47.612887938223544,-122.28982903727079
1076,Medina Viewpoint Park,Park,47.61275854828906,-122.22787850054097
1077,Meydenbauer Bay Park,Beach,47.61128722396346,-122.21128919296676
1078,Glassybaby,Gift Shop,47.60909626463633,-122.20651512229277
1079,Checkered Flag,Boat or Ferry,47.60977973258193,-122.21001505851746
1080,REI Boathouse,Outdoor Supply Store,47.610073606794565,-122.20986265162468
1081,Bellevue Small Beach Park,Park,47.610345,-122.20999199999999
1082,Meydenbauer Bay,Bay,47.61118654295095,-122.21965878893852
1083,Bellevue Marina at Meydenbauer Bay,Harbor / Marina,47.609067672609214,-122.20652697820984
1084,Meydenbauer Bay Yacht Club,Harbor / Marina,47.60909436434944,-122.20647803249479
1085,Araya's Place,Vegetarian / Vegan Restaurant,47.610242217441304,-122.20301689961988
1086,Bis on Main,Restaurant,47.6100032,-122.2038743
1087,Ginza Japanese Restaurant & Yakiniku,Japanese Restaurant,47.609855100000004,-122.2043463
1088,Monsoon East,Vietnamese Restaurant,47.61018886917097,-122.20318936132028
1089,Pagliacci Pizza,Pizza Place,47.61048293713089,-122.20654227114862
1090,Fran's Chocolates,Chocolate Shop,47.61016316769038,-122.20502612858921
1091,Belle Pastry,Bakery,47.61012792947917,-122.20212707618776
1092,Carmines Bellevue,Italian Restaurant,47.61120523335632,-122.2039361163014
1093,Broiler Bay Burgers,Burger Joint,47.610515321994036,-122.19761596861929
1094,T'Latte,Coffee Shop,47.610939648819894,-122.20287934479923
1095,Cantinetta,Italian Restaurant,47.61017543097757,-122.20491671105343
1096,Shakti Vinyasa Yoga,Yoga Studio,47.609970356856145,-122.20315517091532
1097,Mediterranean Kitchen,Mediterranean Restaurant,47.611337020897636,-122.20172701470447
1098,Bellevue Downtown Park,Park,47.61286025107819,-122.20380496096878
1099,Pogacha Restaurant & Café,Italian Restaurant,47.610660231749144,-122.19930759847068
1100,Hokkaido Ramen Santouka,Ramen Restaurant,47.6113421581458,-122.20198398869879
1101,Wildwood Park,Park,47.608496122597984,-122.20459748891348
1102,Garlic Crush,Mediterranean Restaurant,47.61148741618434,-122.20137579840772
1103,Running Elements,Sporting Goods Shop,47.61015253385724,-122.20518423507065
1104,H-Mart,Grocery Store,47.61101658273165,-122.19585299491881
1105,Pokéworks,Poke Place,47.6125167,-122.20133259999999
1106,Bellden Cafe,Coffee Shop,47.61027618927857,-122.19946828304512
1107,Araya's Vegetarian Place,Thai Restaurant,47.610953963696396,-122.20180392667153
1108,520 Bar and Grill,Bar,47.610315909576464,-122.2043867726053
1109,MOD Pizza,Pizza Place,47.61333764,-122.2019533
1110,Swiftwater Cellars On Main,Wine Bar,47.610257778905115,-122.202513460911
1111,Hot Yoga Inc.,Yoga Studio,47.61061201741581,-122.19943084731753
1112,Peony,Asian Restaurant,47.610155931475184,-122.20240363455947
1113,Tuscan Stone Pizza,Pizza Place,47.609947796173365,-122.20185485199006
1114,Victoria's Secret PINK,Lingerie Store,47.61336787586545,-122.20091784239546
1115,Bake's Place,Jazz Club,47.61181315738981,-122.19709610948894
1116,Burberry,Clothing Store,47.61339026197954,-122.20091664196129
1117,L’Experience Paris,French Restaurant,47.612120000000004,-122.19852
1118,Xiao Chi Jie (小吃街),Chinese Restaurant,47.61262716833552,-122.1988257937358
1119,PetSmart,Pet Store,47.611290999999994,-122.195408
1120,Skin and Soul Tattoo & Piercing,Tattoo Parlor,47.61118789463561,-122.20114094989357
1121,Gilbert's Main Street Bagel Deli,Deli / Bodega,47.61020211968446,-122.20524258987324
1122,Tous Les Jours,Bakery,47.6111269322357,-122.1959914995601
1123,Just Poké,Poke Place,47.6127312741554,-122.19889654430712
1124,Seattle Sun Tan,Tanning Salon,47.610274078384435,-122.19741103556558
1125,West Elm,Furniture / Home Store,47.61043256542862,-122.20190264515541
1126,Pho All Day Vietnamese Cuisine,Vietnamese Restaurant,47.611493269935714,-122.19974996704384
1127,Jujubeet Café,Juice Bar,47.6102619,-122.2032022
1128,Starbucks,Coffee Shop,47.61060801484476,-122.20076043910751
1129,Mercato Stellina Pizzeria,Pizza Place,47.61021604335409,-122.2056818299163
1130,The N Salon,Salon / Barbershop,47.612918,-122.199725
1131,CVS pharmacy,Pharmacy,47.60932706341436,-122.20171096663529
1132,Jimmy John's,Sandwich Place,47.611277198699945,-122.19967360369421
1133,Tuesday Morning,Discount Store,47.61096954345703,-122.199392756561
1134,24 Hour Fitness,Gym / Fitness Center,47.61172194249843,-122.19832246154644
1135,Great Clips,Salon / Barbershop,47.611116939903745,-122.19975024461746
1136,Subway,Sandwich Place,47.60986460379782,-122.20041661430632
1137,Wells Fargo - Civica,Bank,47.612267314515705,-122.1966093401029
1138,Bank of America,Bank,47.611784,-122.195768
1139,Marinepolis Sushi Land,Sushi Restaurant,47.611421789527064,-122.19715142011208
1140,7-Eleven,Convenience Store,47.6094893,-122.201094
1141,Toy's Cafe & Bakery,Chinese Restaurant,47.61105840874565,-122.19967243136836
1142,Ottica,Cosmetics Shop,47.61026205997192,-122.20371093933731
1143,Hedges & Vine,Gourmet Shop,47.610419,-122.20504
1144,Namasté Healing Spa,Spa,47.610664,-122.204482
1145,First Street Fitness,Gym Pool,47.61153465213504,-122.2061218237374
1146,Ballet Arts Center,Dance Studio,47.61213,-122.206506
1147,Chipotle Mexican Grill,Mexican Restaurant,47.612737,-122.1852162
1148,Hampton Inn & Suites,Hotel,47.611788092414415,-122.1865501999787
1149,Avis Car Rental,Rental Car Location,47.607257000000004,-122.18888500000001
1150,Hertz,Rental Car Location,47.609161,-122.189325
1151,Basil's Bar at Hilton Bellevue,Hotel Bar,47.60713145621497,-122.18888386661298
1152,Hilton,Hotel,47.6073044,-122.18945790000001
1153,Azteca,Mexican Restaurant,47.611611681075104,-122.18982084391098
1154,Direct Technology,Electronics Store,47.6055643147572,-122.1841199182232
1155,ReachLocal,Advertising Agency,47.6031826,-122.18947390000001
1156,Residence Inn Breakfast,Breakfast Spot,47.603752,-122.18633100000001
1157,PCC,Organic Grocery,47.604827,-122.184288
1158,Blazing Bagels,Bagel Shop,47.61041641235352,-122.1957550048828
1159,Wilburton Park and Ride,Bus Station,47.60298285178946,-122.18535255676731
1160,Sylva on Main Apartments,Residential Building (Apartment / Condo),47.60984605,-122.19790671
1161,Bellevue Botanical Garden,Botanical Garden,47.60957010541106,-122.1789621226245
1162,Wilburton Hill Park,Park,47.608554027645795,-122.17454842613556
1163,The Home Depot,Hardware Store,47.61237274445053,-122.18194305896759
1164,The Ravine Experience,Garden,47.6066182599348,-122.17719625807705
1165,Tateuchi Viewing Pavilion,Botanical Garden,47.60968017578125,-122.17848205566406
1166,wilburton hill park soccer field,Soccer Field,47.60870300000001,-122.174121
1167,Essex Property Trust Seattle,Park,47.61064,-122.180827
1168,Glendale Country Club,Golf Course,47.61032866863062,-122.16105640462736
1169,Sammamish High School Gymnasium,High School,47.606708226594534,-122.15222696948523
1170,Sammamish High School Stadium,Outdoors & Recreation,47.60858374861714,-122.15117552784193
1171,Kizuki Ramen & Izakaya,Ramen Restaurant,47.609612,-122.1417149
1172,Starbucks,Coffee Shop,47.60911639099963,-122.1425775975288
1173,LA Fitness,Gym,47.60926804622076,-122.13947767007532
1174,Szechuan Chef,Chinese Restaurant,47.608798786215495,-122.14199268703274
1175,International Deli,Grocery Store,47.60864439207115,-122.14179556785842
1176,Great Clips,Salon / Barbershop,47.60819203703235,-122.14150875806808
1177,Best Wok,Chinese Restaurant,47.610312539001995,-122.14349968769936
1178,Tuna House Japanese Cuisine,Japanese Restaurant,47.60843211636348,-122.14254102649792
1179,Starbucks,Coffee Shop,47.60904336111316,-122.14252445471442
1180,Greek Express,Greek Restaurant,47.609583951126226,-122.14180298535244
1181,Little Caesars Pizza,Pizza Place,47.60955524141809,-122.14161497044444
1182,Redbox,Video Store,47.610054,-122.14303999999998
1183,Subway,Sandwich Place,47.6082440692743,-122.14137936037486
1184,Wingstop,Wings Joint,47.60952685841489,-122.14142350889972
1185,Menchie's,Frozen Yogurt Shop,47.60953131969595,-122.14158217835079
1186,Walmart Neighborhood Market,Grocery Store,47.60866768396966,-122.13978920665564
1187,State Liquor Store,Liquor Store,47.60847543333333,-122.14098418333332
1188,7-Eleven,Convenience Store,47.6101088388404,-122.143582105636
1189,Serenity Rejuvination Center,Spa,47.608151,-122.143409
1190,O'bop,Korean Restaurant,47.609524,-122.14341
1191,The Little Park,Park,47.610754,-122.137216
1192,Bellevue Board Game Geeks,Gaming Cafe,47.60660385319997,-122.11701546133972
1193,appliance repair bellevue,Home Service,47.6104507446289,-122.11345672607422
1194,Valley Green Clubhouse and Pool,Club House,47.611674777611434,-122.11475640535356
1195,"WC Quality Painting and Remodeling, LLC",Construction & Landscaping,47.610961,-122.121052
1196,CHMD,Pub,47.61051659983009,-122.10875298115835
1197,Lake Vista by Pulte Homes,Real Estate Office,47.60219192504883,-122.07701873779295
1198,MIC Stan,Arts & Entertainment,47.61298693435243,-122.0614303223683
1199,UTurn Handles LLC,Electronics Store,47.609502,-122.056624
1200,Lg Music,Concert Hall,47.60597610473633,-122.0566177368164
1201,Grocery Outlet,Grocery Store,47.6124193,-122.2958205
1202,Shodai Teriyaki,Asian Restaurant,47.61223166123553,-122.29635144566902
1203,Alvin Larkins Park,Park,47.614249614252,-122.28868961334229
1204,Decor on 34th,Furniture / Home Store,47.61346500000001,-122.28956399999998
1205,Nena,Gift Shop,47.611815,-122.289852
1206,Arts Aloft,Art Gallery,47.611815,-122.289852
1207,Madrona Tennis Courts,Tennis Court,47.61145225688961,-122.29009707000357
1208,Metro Bus Stop # 3230,Bus Stop,47.612868186760934,-122.29582428932191
1209,Madrona Farmers Market,Farmers Market,47.61273362413346,-122.29577380287905
1210,sabor con corazon,Food Truck,47.6128884163313,-122.29595628687058
1211,Chely's Kitchen,Food Truck,47.61244861819045,-122.29612972497007
1212,Metro Bus Stop #96760,Bus Stop,47.612441,-122.29624299999999
1213,Green Plate Community Garden,Farmers Market,47.612937693834326,-122.2967800144216
1214,Kurt Cobain's House,Monument / Landmark,47.61916775684494,-122.28177419345562
1215,Kurt Cobain Memorial Bench,Park,47.619112607012646,-122.2818753041472
1216,Howell Park,Park,47.617609853217104,-122.28017588761972
1217,Denny Blaine Park,Park,47.620062977110365,-122.28025783155529
1218,Viretta Park,Park,47.619071420063726,-122.2819275560487
1219,Dykiki,Beach,47.62007168890162,-122.280444929551
1220,Denny Blaine Lake Park,Park,47.618343054192216,-122.28480577468872
1221,S.S. Piddy Escobar,Boat or Ferry,47.613945847986095,-122.26152420043944
1222,Medina Beach Park,Beach,47.615087,-122.239205
1223,Medina City Hall Park,Park,47.61650755342756,-122.23774196504264
1224,Lake Washington,Lake,47.61650763648226,-122.23777772737664
1225,Medina Grocery & Deli,American Restaurant,47.617696,-122.238449
1226,Medina Park,Park,47.62074932265249,-122.23052797144794
1227,Medina Dog Park,Dog Run,47.61940265761726,-122.22974160948036
1228,Medina Green Store,Grocery Store,47.61726216169416,-122.21932687148407
1229,Clyde Beach Park,Beach,47.61426407926828,-122.21757888793944
1230,"Marilyn Bird, Attorney At Law",Lawyer,47.619332,-122.212296
1231,UNIQLO,Clothing Store,47.61437752436676,-122.20371627444412
1232,SEPHORA,Cosmetics Shop,47.614988000000004,-122.203648
1233,Paper Source,Stationery Store,47.615823,-122.201439
1234,Disney store,Toy / Game Store,47.615753999999995,-122.20321200000001
1235,Bellevue Square,Shopping Mall,47.615843472549145,-122.20396367863123
1236,Nordstrom,Women's Store,47.6169811,-122.20402150000001
1237,Lincoln Square,Shopping Mall,47.61680872456017,-122.20140456757078
1238,Din Tai Fung Dumpling House,Dumpling Restaurant,47.617241079519,-122.20079345791164
1239,The Cheesecake Factory,American Restaurant,47.615815429035756,-122.20198988914488
1240,Crate & Barrel,Furniture / Home Store,47.61712317,-122.20210047
1241,Microsoft Lincoln Square,Electronics Store,47.61698449354235,-122.20130636411743
1242,LUSH,Cosmetics Shop,47.61560081336122,-122.20355804380205
1243,Lincoln Square Cinemas,Movie Theater,47.61680791540067,-122.20142753791453
1244,Oil & Vinegar,Gourmet Shop,47.616069716324226,-122.20484045029129
1245,The LEGO Store,Toy / Game Store,47.615623820925606,-122.20392165728916
1246,Gene Juarez Salon & Spa,Spa,47.615404655618896,-122.19890804167521
1247,Tavern Hall,Bar,47.61658811729161,-122.20171104648315
1248,Fogo de Chao Brazilian Steakhouse,Brazilian Restaurant,47.61453416026021,-122.20127386834473
1249,SoulCycle Bellevue,Cycle Studio,47.614044448666725,-122.20064115695357
1250,Ascend Prime Steak & Sushi,American Restaurant,47.61412035465667,-122.20103662147787
1251,Obadiah Salon,Salon / Barbershop,47.61772054111703,-122.20046687184109
1252,Apple Bellevue Square,Electronics Store,47.61634520000001,-122.2043274
1253,Japonessa Sushi Cocina,Sushi Restaurant,47.61487603696451,-122.20137685994456
1254,Ruth's Chris Steak House,Steakhouse,47.617222399999996,-122.2029345
1255,Beecher's Handmade Cheese,Cheese Shop,47.6155944282021,-122.20398153476064
1256,Amazon Books,Bookstore,47.61560963006069,-122.2034899769194
1257,Kizuki Ramen & Izakaya,Ramen Restaurant,47.614628,-122.203474
1258,Happy Lemon,Bubble Tea Shop,47.61607046682857,-122.20491237080981
1259,The Westin Bellevue,Hotel,47.6157898,-122.20067240000002
1260,Daniel's Broiler,Steakhouse,47.617835982032936,-122.2003425736677
1261,Tiffany & Co.,Jewelry Store,47.6165039,-122.2041023
1262,Starbucks,Coffee Shop,47.617077,-122.20192
1263,Purple Cafe & Wine Bar,Wine Bar,47.614010062661116,-122.1988554554588
1264,Lincoln Square South,Shopping Mall,47.61464595989647,-122.20112242410286
1265,Godiva Chocolatier,Chocolate Shop,47.615267700000004,-122.20363629999999
1266,Lot No. 3,Cocktail Bar,47.61431109054351,-122.19866931438446
1267,Fireworks Gallery,Gift Shop,47.6155776363706,-122.20341139032206
1268,Duke's Seafood & Chowder,Seafood Restaurant,47.61486750349516,-122.20150860290072
1269,InSpa,Spa,47.61658868260224,-122.20490397883349
1270,Bellevue Arts Museum,Art Museum,47.61558858670392,-122.2015469351428
1271,Homegrown Sustainable Sandwich Shop,Sandwich Place,47.61537064115138,-122.19863176345824
1272,Black Bottle Postern,Gastropub,47.618614337819814,-122.20183110814587
1273,JOEY Bellevue,New American Restaurant,47.617817850731726,-122.20103075215692
1274,Maggiano's Little Italy,Italian Restaurant,47.61734096619382,-122.20081715375325
1275,Zara,Clothing Store,47.61460999886512,-122.20391567107231
1276,Central Bar & Restaurant,Bar,47.615360591911156,-122.2006986
1277,Dote Coffee Bar,Coffee Shop,47.61481482073247,-122.201296343487
1278,Hyatt Regency Bellevue On Seattle's Eastside,Hotel,47.61881279518832,-122.20043131383837
1279,Cinemark,Movie Theater,47.61456869636883,-122.20105342735063
1280,Istanbul Cuisine,Turkish Restaurant,47.61555144969085,-122.20202207565306
1281,Banana Republic,Clothing Store,47.616503,-122.20368300000001
1282,Woods Coffee,Coffee Shop,47.6167995372864,-122.20123617576245
1283,Marketplace Cafe,Café,47.617075,-122.20451299999999
1284,Drive Thru Boba Cafe,Bubble Tea Shop,47.613895373418075,-122.20112784207129
1285,Barnes & Noble,Bookstore,47.61651792084346,-122.19799373554069
1286,Yuan Spa,Spa,47.61942592665719,-122.19916359677292
1287,Habitant,Tapas Restaurant,47.617002,-122.203878
1288,Blazing Bagels,Bagel Shop,47.61553219051854,-122.1965451173168
1289,Cactus,Mexican Restaurant,47.61674845584468,-122.20172243328336
1290,Nespresso Boutique,Coffee Shop,47.615621316551255,-122.20495272474899
1291,Panda Express,Chinese Restaurant,47.61556890060324,-122.20337619333428
1292,W Bellevue,Hotel,47.61516407204133,-122.20074710440159
1293,Facing East,Taiwanese Restaurant,47.61979262516954,-122.20263544912157
1294,Top Pot Doughnuts,Donut Shop,47.6184412846848,-122.19885465827305
1295,CorePower Yoga,Yoga Studio,47.61909517084962,-122.20276772975922
1296,Paddy Coyne's,Irish Pub,47.61738508565517,-122.2013417794988
1297,Fonté Coffee Roaster Cafe - Bellevue,Café,47.618120541129606,-122.20030813980743
1298,Recoop Spa,Spa,47.618823678249576,-122.20183531127951
1299,QFC,Supermarket,47.6186114,-122.20503670000001
1300,El Gaucho,Steakhouse,47.61481469519439,-122.19503681634023
1301,Seastar Restaurant & Raw Bar,Seafood Restaurant,47.61236043127529,-122.19627827722096
1302,Caffe Ladro,Coffee Shop,47.61374274538795,-122.19668255248631
1303,Anchorhead Coffee,Coffee Shop,47.614914,-122.19396
1304,Flo,Sushi Restaurant,47.62068766391465,-122.19934898080973
1305,Cafe Cesura,Coffee Shop,47.61953241129027,-122.19636156275836
1306,John Howie Steak,Steakhouse,47.61703456375739,-122.19225775312088
1307,Louis Vuitton,Boutique,47.616536850711505,-122.19278371202614
1308,Honor Coffee & Tea,Coffee Shop,47.617748951867426,-122.19196259488831
1309,Lady M and Royce' Pop-up,Dessert Shop,47.616532,-122.192551
1310,Trader Joe's,Grocery Store,47.61351693708917,-122.18510676607063
1311,Pure Barre Bellevue,Gym,47.61816444562253,-122.19123107055223
1312,The Shops at The Bravern,Shopping Mall,47.616593200000004,-122.1923996
1313,Chick-fil-A,Fast Food Restaurant,47.6167791,-122.1862493
1314,Lakeshore Learning Store,Toy / Game Store,47.61355627808008,-122.19260197997343
1315,REI,Sporting Goods Shop,47.613387599999996,-122.1847695
1316,Whole Foods Market,Grocery Store,47.618226026789856,-122.18476749430351
1317,Total Wine & More,Wine Shop,47.6159972,-122.1823646
1318,Uwajimaya,Grocery Store,47.61589024097899,-122.18236204502584
1319,THE PUMPHOUSE BAR & GRILL,Sports Bar,47.61774866370443,-122.18308517419041
1320,The French Bakery,Bakery,47.61861566087697,-122.19149548919063
1321,Woods Coffee,Coffee Shop,47.61641309220046,-122.18631888870571
1322,Neiman Marcus,Department Store,47.616684028109425,-122.19303167448834
1323,The Dolar Shop,Hotpot Restaurant,47.61599075542168,-122.19360705932252
1324,HomeGoods,Furniture / Home Store,47.613468497431604,-122.184898853302
1325,Café Pogacha,Café,47.6132941088909,-122.19520737352221
1326,Lunchbox Laboratory,Burger Joint,47.619111193144725,-122.19131459786408
1327,Sharetea Bellevue,Bubble Tea Shop,47.62043278479312,-122.19366131451851
1328,bFit Bellevue,Gym,47.619396416216624,-122.19357086571185
1329,KCLS Bellevue Library,Library,47.62002968577536,-122.19416031066359
1330,All The Best Pet Care,Pet Store,47.620067599943894,-122.18524269389485
1331,Kasala,Furniture / Home Store,47.6193277388507,-122.18526941020563
1332,Sushiya,Sushi Restaurant,47.613142154417794,-122.19358983166492
1333,The Melting Pot,Fondue Restaurant,47.61271,-122.19582
1334,Best Buy,Electronics Store,47.6139737,-122.1822893
1335,3 Pigs BBQ,BBQ Joint,47.6201272808221,-122.18477423978271
1336,Albert Lee,Furniture / Home Store,47.62003172286351,-122.18447743700358
1337,Starbucks,Coffee Shop,47.61258,-122.196625
1338,Subway,Sandwich Place,47.613570817664794,-122.19300122093716
1339,J.sweets,Dessert Shop,47.615894,-122.18275
1340,Your Sister's Closet,Boutique,47.617919921875,-122.18238067626952
1341,California Closets,Furniture / Home Store,47.6197509765625,-122.18460845947266
1342,Civica Fountain,Fountain,47.61247634887695,-122.19694519042969
1343,Pho Ever,Vietnamese Restaurant,47.617061120817404,-122.17945484008122
1344,Advanced Skin and Body Solutions,Spa,47.61778229999999,-122.1789887
1345,Starbucks,Coffee Shop,47.61593683,-122.18083770000001
1346,I Love Sushi,Sushi Restaurant,47.61917812339383,-122.18182761765593
1347,The Goose Pub & Eatery,Dive Bar,47.61976216740446,-122.17892252420769
1348,Moghul Palace India Cuisine,Indian Restaurant,47.61618784124756,-122.18087851276123
1349,Enterprise Rent-A-Car,Rental Car Location,47.6204059252231,-122.17723578214641
1350,United States Postal Service,Post Office,47.61947484101443,-122.17547893524164
1351,Avis Car Rental,Rental Car Location,47.616889,-122.18526899999999
1352,The Crab Pot,Seafood Restaurant,47.62031296335452,-122.18062480159048
1353,Taco Del Mar,Mexican Restaurant,47.61625535016326,-122.18069894510192
1354,Bartell Drugs,Pharmacy,47.617000215143634,-122.18069621849564
1355,Big Apple Bagels,Bagel Shop,47.61613456569341,-122.18093529353796
1356,8th Street Market,Deli / Bodega,47.61693954467773,-122.17928314208984
1357,Shell,Gas Station,47.61707646982274,-122.1800237121095
1358,Oasis Tea Zone,Bubble Tea Shop,47.61602783203125,-122.18196868896484
1359,Service King Collision Repair of Bellevue,Auto Garage,47.6196533,-122.17735592
1360,Sparc Apartments,Residential Building (Apartment / Condo),47.620712,-122.17889699999999
1361,Bellevue Refrigerator Repair,Other Repair Shop,47.61053197241546,-122.16867685317995
1362,Bellevue Aquatic Center,Gym Pool,47.61630855640801,-122.14973144934885
1363,Walgreens,Pharmacy,47.6167118,-122.1541894
1364,The Commons swimming pool,Pool,47.6193,-122.1552
1365,Amato Catering,Italian Restaurant,47.617632,-122.1463
1366,Yi Pin Taiwanese Cuisine,Taiwanese Restaurant,47.61611938476562,-122.14372253417969
1367,Super Supplements - Bellevue,Supplement Shop,47.61665058611408,-122.14364136222704
1368,El Maestro Del Taco,Taco Place,47.6163963579029,-122.13199877726841
1369,Bartell Drugs,Pharmacy,47.61665139567229,-122.13330370453473
1370,Grocery Outlet,Grocery Store,47.616518,-122.1313498
1371,Foodshion,Asian Restaurant,47.61643532510158,-122.14352278050434
1372,T-Mobile,Mobile Phone Shop,47.617397499999996,-122.13171909999998
1373,Redbox,Video Store,47.61640548706055,-122.13345336914062
1374,Tuesday Morning (Tuesday Morning - Closing Sale In Progress),Construction & Landscaping,47.616206299999995,-122.13349070000001
1375,Circle K,Convenience Store,47.61681654036066,-122.13171718276459
1376,Dough Zone Dumpling House,Dumpling Restaurant,47.617592485111246,-122.12801792106724
1377,The UPS Store,Shipping Store,47.617224486645156,-122.128445662554
1378,Crossroads Park,Park,47.617619367741106,-122.12397991622684
1379,Daiso,Miscellaneous Shop,47.61921028129353,-122.12994841621378
1380,Thai VP Authentic Thai Cuisine,Thai Restaurant,47.617524286181286,-122.12790965508492
1381,Stone Gardens,Climbing Gym,47.61988709225091,-122.12919870900872
1382,Half Price Books,Bookstore,47.618735,-122.131134
1383,Old Country Bakery,Bakery,47.61789981717205,-122.12765296568442
1384,The French Bakery,Bakery,47.619568252569046,-122.1311973945196
1385,Crunch - Bellevue,Gym / Fitness Center,47.6187131,-122.1314311
1386,Just Tiffins,Dosa Place,47.61902092060402,-122.13078457820728
1387,Crossroads Farmers Market,Farmers Market,47.61958526958721,-122.12937444479252
1388,Ulta Beauty,Cosmetics Shop,47.61802670000001,-122.13123329999999
1389,Uncle's Games (Bellevue),Toy / Game Store,47.61948879036262,-122.13059985826445
1390,Michaels,Arts & Crafts Store,47.61806097681895,-122.12903804817871
1391,Regal Crossroads - Bellevue,Movie Theater,47.620948999999996,-122.129143
1392,Peaks Frozen Yogurt Bar,Frozen Yogurt Shop,47.620928616376254,-122.12997536879809
1393,O'Char Thai,Thai Restaurant,47.619267821650645,-122.13063335773994
1394,Tutta Bella Neapolitan Pizzeria,Pizza Place,47.61919061954497,-122.13111663544355
1395,GameStop,Video Game Store,47.617323245697726,-122.12851828037435
1396,Pier 1 Imports,Furniture / Home Store,47.61795046778474,-122.13098015776129
1397,"Game Over Videogames - Bellevue,WA",Video Game Store,47.620884242842294,-122.1303491175335
1398,Crossroads Bellevue,Shopping Mall,47.618991722033826,-122.13072666813429
1399,Fuji Teriyaki,Japanese Restaurant,47.61765677284372,-122.12796454887476
1400,Hand & Stone,Massage Studio,47.61783870000001,-122.13012830000001
1401,Cost Plus World Market,Furniture / Home Store,47.62068072749022,-122.13102668523788
1402,Sally Beauty,Cosmetics Shop,47.61744939241282,-122.12850930950388
1403,QFC,Supermarket,47.620119,-122.13085559999999
1404,Domino's Pizza,Pizza Place,47.61741742407683,-122.12786393786699
1405,Creatively Yours,Arts & Crafts Store,47.61871512053622,-122.13059600639995
1406,Alter Ego Comics & Collectibles,Comic Shop,47.619480740003965,-122.13038000138545
1407,Palace Korean Bar & Grill,Korean Restaurant,47.617235158092576,-122.12736550066131
1408,WiggleWorks kids at Crossroads Bellevue,Playground,47.618251634579366,-122.13074607283902
1409,Cold Stone Creamery,Ice Cream Shop,47.619031,-122.131045
1410,Starbucks,Coffee Shop,47.617226998112976,-122.13065984788116
1411,Boba Express,Food & Drink Shop,47.61917897302535,-122.13065559657456
1412,Jinya Ramen Bar,Ramen Restaurant,47.620791832498256,-122.13041329609248
1413,Starbucks,Coffee Shop,47.61888618,-122.13100109999999
1414,New York Cupcakes,Cupcake Shop,47.6209214565366,-122.13017320744854
1415,Famous Footwear,Shoe Store,47.618145811831596,-122.13092439056074
1416,Firenze Ristorante Italiano,Italian Restaurant,47.6209130624861,-122.13008156624521
1417,Old Navy,Clothing Store,47.618427342993705,-122.13087045004022
1418,Crossroads Cafe,American Restaurant,47.61901007338304,-122.13074709194656
1419,Petco,Pet Store,47.62049743255773,-122.129952021705
